[
  {
    "city": "Akkaraipattu",
    "district": "Ampara",
    "postal": "32400",
    "latitude": 7.2167,
    "longitude": 81.85
  },
  {
    "city": "Ambagahawatta",
    "district": "Ampara",
    "postal": "90326",
    "latitude": 7.4,
    "longitude": 81.3
  },
  {
    "city": "Ampara",
    "district": "Ampara",
    "postal": "32000",
    "latitude": 7.2833,
    "longitude": 81.6667
  },
  {
    "city": "Bakmitiyawa",
    "district": "Ampara",
    "postal": "32024",
    "latitude": 7.026268,
    "longitude": 81.633832
  },
  {
    "city": "Deegawapiya",
    "district": "Ampara",
    "postal": "32006",
    "latitude": 7.2833,
    "longitude": 81.6667
  },
  {
    "city": "Devalahinda",
    "district": "Ampara",
    "postal": "32038",
    "latitude": 7.1889,
    "longitude": 81.5778
  },
  {
    "city": "Digamadulla Weeragoda",
    "district": "Ampara",
    "postal": "32008",
    "latitude": 7.2833,
    "longitude": 81.6667
  },
  {
    "city": "Dorakumbura",
    "district": "Ampara",
    "postal": "32104",
    "latitude": 7.358849,
    "longitude": 81.280133
  },
  {
    "city": "Gonagolla",
    "district": "Ampara",
    "postal": "32064",
    "latitude": 7.449853,
    "longitude": 81.618014
  },
  {
    "city": "Hulannuge",
    "district": "Ampara",
    "postal": "32514",
    "latitude": 7.4,
    "longitude": 81.3
  },
  {
    "city": "Kalmunai",
    "district": "Ampara",
    "postal": "32300",
    "latitude": 7.413897,
    "longitude": 81.826718
  },
  {
    "city": "Kannakipuram",
    "district": "Ampara",
    "postal": "32405",
    "latitude": 7.2167,
    "longitude": 81.85
  },
  {
    "city": "Karativu",
    "district": "Ampara",
    "postal": "32250",
    "latitude": 7.3833,
    "longitude": 81.8333
  },
  {
    "city": "Kekirihena",
    "district": "Ampara",
    "postal": "32074",
    "latitude": 7.490724,
    "longitude": 81.310836
  },
  {
    "city": "Koknahara",
    "district": "Ampara",
    "postal": "32035",
    "latitude": 7.184832,
    "longitude": 81.555806
  },
  {
    "city": "Kolamanthalawa",
    "district": "Ampara",
    "postal": "32102",
    "latitude": 7.351733,
    "longitude": 81.249913
  },
  {
    "city": "Komari",
    "district": "Ampara",
    "postal": "32418",
    "latitude": 6.976958,
    "longitude": 81.78883
  },
  {
    "city": "Lahugala",
    "district": "Ampara",
    "postal": "32512",
    "latitude": 7.415566,
    "longitude": 81.33954
  },
  {
    "city": "lmkkamam",
    "district": "Ampara",
    "postal": "32450",
    "latitude": 7.1125,
    "longitude": 81.8542
  },
  {
    "city": "Mahaoya",
    "district": "Ampara",
    "postal": "32070",
    "latitude": 7.535248,
    "longitude": 81.351145
  },
  {
    "city": "Marathamune",
    "district": "Ampara",
    "postal": "32314",
    "latitude": 7.45,
    "longitude": 81.8167
  },
  {
    "city": "Namaloya",
    "district": "Ampara",
    "postal": "32037",
    "latitude": 7.1889,
    "longitude": 81.5778
  },
  {
    "city": "Navithanveli",
    "district": "Ampara",
    "postal": "32308",
    "latitude": 7.4333,
    "longitude": 81.7833
  },
  {
    "city": "Nintavur",
    "district": "Ampara",
    "postal": "32340",
    "latitude": 7.35,
    "longitude": 81.85
  },
  {
    "city": "Oluvil",
    "district": "Ampara",
    "postal": "32360",
    "latitude": 7.2833,
    "longitude": 81.85
  },
  {
    "city": "Padiyatalawa",
    "district": "Ampara",
    "postal": "32100",
    "latitude": 7.4,
    "longitude": 81.2333
  },
  {
    "city": "Pahalalanda",
    "district": "Ampara",
    "postal": "32034",
    "latitude": 7.21752,
    "longitude": 81.578714
  },
  {
    "city": "Panama",
    "district": "Ampara",
    "postal": "32508",
    "latitude": 6.812201,
    "longitude": 81.712237
  },
  {
    "city": "Pannalagama",
    "district": "Ampara",
    "postal": "32022",
    "latitude": 7.0667,
    "longitude": 81.6167
  },
  {
    "city": "Paragahakele",
    "district": "Ampara",
    "postal": "32031",
    "latitude": 7.25669,
    "longitude": 81.609526
  },
  {
    "city": "Periyaneelavanai",
    "district": "Ampara",
    "postal": "32316",
    "latitude": 7.434002,
    "longitude": 81.814169
  },
  {
    "city": "Polwaga Janapadaya",
    "district": "Ampara",
    "postal": "32032",
    "latitude": 7.1889,
    "longitude": 81.5778
  },
  {
    "city": "Pottuvil",
    "district": "Ampara",
    "postal": "32500",
    "latitude": 6.8667,
    "longitude": 81.8333
  },
  {
    "city": "Sainthamaruthu",
    "district": "Ampara",
    "postal": "32280",
    "latitude": 7.3833,
    "longitude": 81.8333
  },
  {
    "city": "Samanthurai",
    "district": "Ampara",
    "postal": "32200",
    "latitude": 7.3833,
    "longitude": 81.8333
  },
  {
    "city": "Serankada",
    "district": "Ampara",
    "postal": "32101",
    "latitude": 7.464517,
    "longitude": 81.263599
  },
  {
    "city": "Tempitiya",
    "district": "Ampara",
    "postal": "32072",
    "latitude": 7.610374,
    "longitude": 81.429907
  },
  {
    "city": "Thambiluvil",
    "district": "Ampara",
    "postal": "32415",
    "latitude": 7.132227,
    "longitude": 81.819074
  },
  {
    "city": "Tirukovil",
    "district": "Ampara",
    "postal": "32420",
    "latitude": 7.1167,
    "longitude": 81.85
  },
  {
    "city": "Uhana",
    "district": "Ampara",
    "postal": "32060",
    "latitude": 7.363281,
    "longitude": 81.637746
  },
  {
    "city": "Wadinagala",
    "district": "Ampara",
    "postal": "32039",
    "latitude": 7.127849,
    "longitude": 81.56922
  },
  {
    "city": "Wanagamuwa",
    "district": "Ampara",
    "postal": "32454",
    "latitude": 7.1125,
    "longitude": 81.8542
  },
  {
    "city": "Angamuwa",
    "district": "Anuradhapura",
    "postal": "50248",
    "latitude": 8.177645,
    "longitude": 80.205048
  },
  {
    "city": "Anuradhapura",
    "district": "Anuradhapura",
    "postal": "50000",
    "latitude": 8.35,
    "longitude": 80.3833
  },
  {
    "city": "Awukana",
    "district": "Anuradhapura",
    "postal": "50169",
    "latitude": 7.9753,
    "longitude": 80.5266
  },
  {
    "city": "Bogahawewa",
    "district": "Anuradhapura",
    "postal": "50566",
    "latitude": 8.328993,
    "longitude": 80.251702
  },
  {
    "city": "Dematawewa",
    "district": "Anuradhapura",
    "postal": "50356",
    "latitude": 8.357373,
    "longitude": 80.870087
  },
  {
    "city": "Dimbulagala",
    "district": "Anuradhapura",
    "postal": "51031",
    "latitude": 7.9167,
    "longitude": 80.55
  },
  {
    "city": "Dutuwewa",
    "district": "Anuradhapura",
    "postal": "50393",
    "latitude": 8.65,
    "longitude": 80.5167
  },
  {
    "city": "Elayapattuwa",
    "district": "Anuradhapura",
    "postal": "50014",
    "latitude": 8.413522,
    "longitude": 80.318148
  },
  {
    "city": "Ellewewa",
    "district": "Anuradhapura",
    "postal": "51034",
    "latitude": 7.9167,
    "longitude": 80.55
  },
  {
    "city": "Eppawala",
    "district": "Anuradhapura",
    "postal": "50260",
    "latitude": 8.1167,
    "longitude": 80.7333
  },
  {
    "city": "Etawatunuwewa",
    "district": "Anuradhapura",
    "postal": "50584",
    "latitude": 8.5595,
    "longitude": 80.5476
  },
  {
    "city": "Etaweeragollewa",
    "district": "Anuradhapura",
    "postal": "50518",
    "latitude": 8.613962,
    "longitude": 80.539713
  },
  {
    "city": "Galapitagala",
    "district": "Anuradhapura",
    "postal": "32066",
    "latitude": 8.089843,
    "longitude": 80.685528
  },
  {
    "city": "Galenbindunuwewa",
    "district": "Anuradhapura",
    "postal": "50390",
    "latitude": 8.5833,
    "longitude": 80.55
  },
  {
    "city": "Galkadawala",
    "district": "Anuradhapura",
    "postal": "50006",
    "latitude": 8.412861,
    "longitude": 80.378175
  },
  {
    "city": "Galkiriyagama",
    "district": "Anuradhapura",
    "postal": "50120",
    "latitude": 7.9414,
    "longitude": 80.565
  },
  {
    "city": "Galkulama",
    "district": "Anuradhapura",
    "postal": "50064",
    "latitude": 8.270414,
    "longitude": 80.506526
  },
  {
    "city": "Galnewa",
    "district": "Anuradhapura",
    "postal": "50170",
    "latitude": 8.2,
    "longitude": 80.3667
  },
  {
    "city": "Gambirigaswewa",
    "district": "Anuradhapura",
    "postal": "50057",
    "latitude": 8.4667,
    "longitude": 80.3667
  },
  {
    "city": "Ganewalpola",
    "district": "Anuradhapura",
    "postal": "50142",
    "latitude": 8.090528,
    "longitude": 80.628195
  },
  {
    "city": "Gemunupura",
    "district": "Anuradhapura",
    "postal": "50224",
    "latitude": 8.0667,
    "longitude": 80.6833
  },
  {
    "city": "Getalawa",
    "district": "Anuradhapura",
    "postal": "50392",
    "latitude": 8.6167,
    "longitude": 80.5333
  },
  {
    "city": "Gnanikulama",
    "district": "Anuradhapura",
    "postal": "50036",
    "latitude": 8.297336,
    "longitude": 80.431753
  },
  {
    "city": "Gonahaddenawa",
    "district": "Anuradhapura",
    "postal": "50554",
    "latitude": 8.5333,
    "longitude": 80.5083
  },
  {
    "city": "Habarana",
    "district": "Anuradhapura",
    "postal": "50150",
    "latitude": 8.047531,
    "longitude": 80.748664
  },
  {
    "city": "Halmillawa Dambulla",
    "district": "Anuradhapura",
    "postal": "50124",
    "latitude": 7.9474,
    "longitude": 80.594
  },
  {
    "city": "Halmillawetiya",
    "district": "Anuradhapura",
    "postal": "50552",
    "latitude": 8.35,
    "longitude": 80.2667
  },
  {
    "city": "Hidogama",
    "district": "Anuradhapura",
    "postal": "50044",
    "latitude": 8.250421,
    "longitude": 80.418663
  },
  {
    "city": "Horawpatana",
    "district": "Anuradhapura",
    "postal": "50350",
    "latitude": 8.4333,
    "longitude": 80.8667
  },
  {
    "city": "Horiwila",
    "district": "Anuradhapura",
    "postal": "50222",
    "latitude": 8.0667,
    "longitude": 80.6833
  },
  {
    "city": "Hurigaswewa",
    "district": "Anuradhapura",
    "postal": "50176",
    "latitude": 8.1333,
    "longitude": 80.3667
  },
  {
    "city": "Hurulunikawewa",
    "district": "Anuradhapura",
    "postal": "50394",
    "latitude": 8.6167,
    "longitude": 80.5333
  },
  {
    "city": "Ihala Puliyankulama",
    "district": "Anuradhapura",
    "postal": "61316",
    "latitude": 8.153213,
    "longitude": 80.559989
  },
  {
    "city": "Kagama",
    "district": "Anuradhapura",
    "postal": "50282",
    "latitude": 8.061465,
    "longitude": 80.478039
  },
  {
    "city": "Kahatagasdigiliya",
    "district": "Anuradhapura",
    "postal": "50320",
    "latitude": 8.4167,
    "longitude": 80.6833
  },
  {
    "city": "Kahatagollewa",
    "district": "Anuradhapura",
    "postal": "50562",
    "latitude": 8.45,
    "longitude": 80.65
  },
  {
    "city": "Kalakarambewa",
    "district": "Anuradhapura",
    "postal": "50288",
    "latitude": 8.0833,
    "longitude": 80.4667
  },
  {
    "city": "Kalaoya",
    "district": "Anuradhapura",
    "postal": "50226",
    "latitude": 8.0667,
    "longitude": 80.6833
  },
  {
    "city": "Kalawedi Ulpotha",
    "district": "Anuradhapura",
    "postal": "50556",
    "latitude": 8.5333,
    "longitude": 80.5083
  },
  {
    "city": "Kallanchiya",
    "district": "Anuradhapura",
    "postal": "50454",
    "latitude": 8.45,
    "longitude": 80.55
  },
  {
    "city": "Kalpitiya",
    "district": "Anuradhapura",
    "postal": "61360",
    "latitude": 8.2333,
    "longitude": 79.7667
  },
  {
    "city": "Kalukele Badanagala",
    "district": "Anuradhapura",
    "postal": "51037",
    "latitude": 7.9167,
    "longitude": 80.55
  },
  {
    "city": "Kapugallawa",
    "district": "Anuradhapura",
    "postal": "50370",
    "latitude": 8.4233,
    "longitude": 80.6783
  },
  {
    "city": "Karagahawewa",
    "district": "Anuradhapura",
    "postal": "50232",
    "latitude": 8.23416,
    "longitude": 80.322772
  },
  {
    "city": "Kashyapapura",
    "district": "Anuradhapura",
    "postal": "51032",
    "latitude": 7.9167,
    "longitude": 80.55
  },
  {
    "city": "Kebithigollewa",
    "district": "Anuradhapura",
    "postal": "50500",
    "latitude": 8.5333,
    "longitude": 80.4833
  },
  {
    "city": "Kekirawa",
    "district": "Anuradhapura",
    "postal": "50100",
    "latitude": 8.037462,
    "longitude": 80.59801
  },
  {
    "city": "Kendewa",
    "district": "Anuradhapura",
    "postal": "50452",
    "latitude": 8.4833,
    "longitude": 80.6
  },
  {
    "city": "Kiralogama",
    "district": "Anuradhapura",
    "postal": "50259",
    "latitude": 8.19407,
    "longitude": 80.37012
  },
  {
    "city": "Kirigalwewa",
    "district": "Anuradhapura",
    "postal": "50511",
    "latitude": 8.537767,
    "longitude": 80.556651
  },
  {
    "city": "Kirimundalama",
    "district": "Anuradhapura",
    "postal": "61362",
    "latitude": 8.2333,
    "longitude": 79.7667
  },
  {
    "city": "Kitulhitiyawa",
    "district": "Anuradhapura",
    "postal": "50132",
    "latitude": 7.916592,
    "longitude": 80.63811
  },
  {
    "city": "Kurundankulama",
    "district": "Anuradhapura",
    "postal": "50062",
    "latitude": 8.2,
    "longitude": 80.45
  },
  {
    "city": "Labunoruwa",
    "district": "Anuradhapura",
    "postal": "50088",
    "latitude": 8.168026,
    "longitude": 80.617001
  },
  {
    "city": "Ihalagama",
    "district": "Anuradhapura",
    "postal": "50304",
    "latitude": 8.35,
    "longitude": 80.5
  },
  {
    "city": "Ipologama",
    "district": "Anuradhapura",
    "postal": "50280",
    "latitude": 8.0833,
    "longitude": 80.4667
  },
  {
    "city": "Madatugama",
    "district": "Anuradhapura",
    "postal": "50130",
    "latitude": 7.940041,
    "longitude": 80.638217
  },
  {
    "city": "Maha Elagamuwa",
    "district": "Anuradhapura",
    "postal": "50126",
    "latitude": 7.991935,
    "longitude": 80.61824
  },
  {
    "city": "Mahabulankulama",
    "district": "Anuradhapura",
    "postal": "50196",
    "latitude": 7.9753,
    "longitude": 80.5266
  },
  {
    "city": "Mahailluppallama",
    "district": "Anuradhapura",
    "postal": "50270",
    "latitude": 8.106,
    "longitude": 80.3619
  },
  {
    "city": "Mahakanadarawa",
    "district": "Anuradhapura",
    "postal": "50306",
    "latitude": 8.35,
    "longitude": 80.5
  },
  {
    "city": "Mahapothana",
    "district": "Anuradhapura",
    "postal": "50327",
    "latitude": 8.4167,
    "longitude": 80.6833
  },
  {
    "city": "Mahasenpura",
    "district": "Anuradhapura",
    "postal": "50574",
    "latitude": 8.5595,
    "longitude": 80.5476
  },
  {
    "city": "Mahawilachchiya",
    "district": "Anuradhapura",
    "postal": "50022",
    "latitude": 8.2814,
    "longitude": 80.4588
  },
  {
    "city": "Mailagaswewa",
    "district": "Anuradhapura",
    "postal": "50384",
    "latitude": 8.4,
    "longitude": 80.6333
  },
  {
    "city": "Malwanagama",
    "district": "Anuradhapura",
    "postal": "50236",
    "latitude": 8.225,
    "longitude": 80.3333
  },
  {
    "city": "Maneruwa",
    "district": "Anuradhapura",
    "postal": "50182",
    "latitude": 7.895997,
    "longitude": 80.475966
  },
  {
    "city": "Maradankadawala",
    "district": "Anuradhapura",
    "postal": "50080",
    "latitude": 8.1333,
    "longitude": 80.4833
  },
  {
    "city": "Maradankalla",
    "district": "Anuradhapura",
    "postal": "50308",
    "latitude": 8.317498,
    "longitude": 80.537899
  },
  {
    "city": "Medawachchiya",
    "district": "Anuradhapura",
    "postal": "50500",
    "latitude": 8.540822,
    "longitude": 80.495957
  },
  {
    "city": "Megodawewa",
    "district": "Anuradhapura",
    "postal": "50334",
    "latitude": 8.2333,
    "longitude": 80.7333
  },
  {
    "city": "Mihintale",
    "district": "Anuradhapura",
    "postal": "50300",
    "latitude": 8.35,
    "longitude": 80.5
  },
  {
    "city": "Morakewa",
    "district": "Anuradhapura",
    "postal": "50349",
    "latitude": 8.513051,
    "longitude": 80.778223
  },
  {
    "city": "Mulkiriyawa",
    "district": "Anuradhapura",
    "postal": "50324",
    "latitude": 8.4167,
    "longitude": 80.6833
  },
  {
    "city": "Muriyakadawala",
    "district": "Anuradhapura",
    "postal": "50344",
    "latitude": 8.236464,
    "longitude": 80.654663
  },
  {
    "city": "Nachchaduwa",
    "district": "Anuradhapura",
    "postal": "50046",
    "latitude": 8.2667,
    "longitude": 80.4667
  },
  {
    "city": "Namalpura",
    "district": "Anuradhapura",
    "postal": "50339",
    "latitude": 8.2333,
    "longitude": 80.7333
  },
  {
    "city": "Negampaha",
    "district": "Anuradhapura",
    "postal": "50180",
    "latitude": 7.9872,
    "longitude": 80.4597
  },
  {
    "city": "Nochchiyagama",
    "district": "Anuradhapura",
    "postal": "50200",
    "latitude": 8.266802,
    "longitude": 80.20823
  },
  {
    "city": "Nuwaragala",
    "district": "Anuradhapura",
    "postal": "51039",
    "latitude": 7.9167,
    "longitude": 80.55
  },
  {
    "city": "Padavi Maithripura",
    "district": "Anuradhapura",
    "postal": "50572",
    "latitude": 8.5595,
    "longitude": 80.5476
  },
  {
    "city": "Padavi Parakramapura",
    "district": "Anuradhapura",
    "postal": "50582",
    "latitude": 8.5595,
    "longitude": 80.5476
  },
  {
    "city": "Padavi Sripura",
    "district": "Anuradhapura",
    "postal": "50587",
    "latitude": 8.5595,
    "longitude": 80.5476
  },
  {
    "city": "Padavi Sritissapura",
    "district": "Anuradhapura",
    "postal": "50588",
    "latitude": 8.5595,
    "longitude": 80.5476
  },
  {
    "city": "Padaviya",
    "district": "Anuradhapura",
    "postal": "50570",
    "latitude": 8.5595,
    "longitude": 80.5476
  },
  {
    "city": "Padikaramaduwa",
    "district": "Anuradhapura",
    "postal": "50338",
    "latitude": 8.2333,
    "longitude": 80.7333
  },
  {
    "city": "Pahala Halmillewa",
    "district": "Anuradhapura",
    "postal": "50206",
    "latitude": 8.21672,
    "longitude": 80.19116
  },
  {
    "city": "Pahala Maragahawe",
    "district": "Anuradhapura",
    "postal": "50220",
    "latitude": 8.0667,
    "longitude": 80.6833
  },
  {
    "city": "Pahalagama",
    "district": "Anuradhapura",
    "postal": "50244",
    "latitude": 8.186896,
    "longitude": 80.283767
  },
  {
    "city": "Palugaswewa",
    "district": "Anuradhapura",
    "postal": "50144",
    "latitude": 8.053538,
    "longitude": 80.71918
  },
  {
    "city": "Pandukabayapura",
    "district": "Anuradhapura",
    "postal": "50448",
    "latitude": 8.4467,
    "longitude": 80.46731
  },
  {
    "city": "Pandulagama",
    "district": "Anuradhapura",
    "postal": "50029",
    "latitude": 8.2814,
    "longitude": 80.4588
  },
  {
    "city": "Parakumpura",
    "district": "Anuradhapura",
    "postal": "50326",
    "latitude": 8.4167,
    "longitude": 80.6833
  },
  {
    "city": "Parangiyawadiya",
    "district": "Anuradhapura",
    "postal": "50354",
    "latitude": 8.491831,
    "longitude": 80.910014
  },
  {
    "city": "Parasangahawewa",
    "district": "Anuradhapura",
    "postal": "50055",
    "latitude": 8.4333,
    "longitude": 80.4333
  },
  {
    "city": "Pelatiyawa",
    "district": "Anuradhapura",
    "postal": "51033",
    "latitude": 7.9167,
    "longitude": 80.55
  },
  {
    "city": "Pemaduwa",
    "district": "Anuradhapura",
    "postal": "50020",
    "latitude": 8.2814,
    "longitude": 80.4588
  },
  {
    "city": "Perimiyankulama",
    "district": "Anuradhapura",
    "postal": "50004",
    "latitude": 8.270584,
    "longitude": 80.535827
  },
  {
    "city": "Pihimbiyagolewa",
    "district": "Anuradhapura",
    "postal": "50512",
    "latitude": 8.5595,
    "longitude": 80.5476
  },
  {
    "city": "Pubbogama",
    "district": "Anuradhapura",
    "postal": "50122",
    "latitude": 7.9167,
    "longitude": 80.6
  },
  {
    "city": "Punewa",
    "district": "Anuradhapura",
    "postal": "50506",
    "latitude": 8.6167,
    "longitude": 80.4667
  },
  {
    "city": "Rajanganaya",
    "district": "Anuradhapura",
    "postal": "50246",
    "latitude": 8.1708,
    "longitude": 80.2833
  },
  {
    "city": "Rambewa",
    "district": "Anuradhapura",
    "postal": "50450",
    "latitude": 8.4333,
    "longitude": 80.5
  },
  {
    "city": "Rampathwila",
    "district": "Anuradhapura",
    "postal": "50386",
    "latitude": 8.4,
    "longitude": 80.6333
  },
  {
    "city": "Rathmalgahawewa",
    "district": "Anuradhapura",
    "postal": "50514",
    "latitude": 8.5595,
    "longitude": 80.5476
  },
  {
    "city": "Saliyapura",
    "district": "Anuradhapura",
    "postal": "50008",
    "latitude": 8.3389,
    "longitude": 80.4333
  },
  {
    "city": "Seeppukulama",
    "district": "Anuradhapura",
    "postal": "50380",
    "latitude": 8.4,
    "longitude": 80.6333
  },
  {
    "city": "Senapura",
    "district": "Anuradhapura",
    "postal": "50284",
    "latitude": 8.0833,
    "longitude": 80.4667
  },
  {
    "city": "Sivalakulama",
    "district": "Anuradhapura",
    "postal": "50068",
    "latitude": 8.25237,
    "longitude": 80.641743
  },
  {
    "city": "Siyambalewa",
    "district": "Anuradhapura",
    "postal": "50184",
    "latitude": 7.95,
    "longitude": 80.5167
  },
  {
    "city": "Sravasthipura",
    "district": "Anuradhapura",
    "postal": "50042",
    "latitude": 8.2667,
    "longitude": 80.4333
  },
  {
    "city": "Talawa",
    "district": "Anuradhapura",
    "postal": "50230",
    "latitude": 8.2167,
    "longitude": 80.35
  },
  {
    "city": "Tambuttegama",
    "district": "Anuradhapura",
    "postal": "50240",
    "latitude": 8.15,
    "longitude": 80.3
  },
  {
    "city": "Tammennawa",
    "district": "Anuradhapura",
    "postal": "50104",
    "latitude": 8.0333,
    "longitude": 80.6
  },
  {
    "city": "Tantirimale",
    "district": "Anuradhapura",
    "postal": "50016",
    "latitude": 8.4,
    "longitude": 80.3
  },
  {
    "city": "Telhiriyawa",
    "district": "Anuradhapura",
    "postal": "50242",
    "latitude": 8.15,
    "longitude": 80.3333
  },
  {
    "city": "Tirappane",
    "district": "Anuradhapura",
    "postal": "50072",
    "latitude": 8.2167,
    "longitude": 80.3833
  },
  {
    "city": "Tittagonewa",
    "district": "Anuradhapura",
    "postal": "50558",
    "latitude": 8.7167,
    "longitude": 80.75
  },
  {
    "city": "Udunuwara Colony",
    "district": "Anuradhapura",
    "postal": "50207",
    "latitude": 8.2417,
    "longitude": 80.1917
  },
  {
    "city": "Upuldeniya",
    "district": "Anuradhapura",
    "postal": "50382",
    "latitude": 8.4,
    "longitude": 80.6333
  },
  {
    "city": "Uttimaduwa",
    "district": "Anuradhapura",
    "postal": "50067",
    "latitude": 8.254989,
    "longitude": 80.55487
  },
  {
    "city": "Vellamanal",
    "district": "Anuradhapura",
    "postal": "31053",
    "latitude": 8.5167,
    "longitude": 81.1833
  },
  {
    "city": "Viharapalugama",
    "district": "Anuradhapura",
    "postal": "50012",
    "latitude": 8.4,
    "longitude": 80.3
  },
  {
    "city": "Wahalkada",
    "district": "Anuradhapura",
    "postal": "50564",
    "latitude": 8.5667,
    "longitude": 80.6222
  },
  {
    "city": "Wahamalgollewa",
    "district": "Anuradhapura",
    "postal": "50492",
    "latitude": 8.479838,
    "longitude": 80.497451
  },
  {
    "city": "Walagambahuwa",
    "district": "Anuradhapura",
    "postal": "50086",
    "latitude": 8.153134,
    "longitude": 80.499049
  },
  {
    "city": "Walahaviddawewa",
    "district": "Anuradhapura",
    "postal": "50516",
    "latitude": 8.5595,
    "longitude": 80.5476
  },
  {
    "city": "Welimuwapotana",
    "district": "Anuradhapura",
    "postal": "50358",
    "latitude": 8.4333,
    "longitude": 80.8667
  },
  {
    "city": "Welioya Project",
    "district": "Anuradhapura",
    "postal": "50586",
    "latitude": 8.5595,
    "longitude": 80.5476
  },
  {
    "city": "Colombo 15",
    "district": "Colombo",
    "postal": "01500",
    "latitude": 6.959444,
    "longitude": 79.875278
  },
  {
    "city": "Akarawita",
    "district": "Colombo",
    "postal": "10732",
    "latitude": 6.95,
    "longitude": 80.1
  },
  {
    "city": "Ambalangoda",
    "district": "Colombo",
    "postal": "80300",
    "latitude": 6.77533,
    "longitude": 79.96413
  },
  {
    "city": "Athurugiriya",
    "district": "Colombo",
    "postal": "10150",
    "latitude": 6.873072,
    "longitude": 79.997214
  },
  {
    "city": "Avissawella",
    "district": "Colombo",
    "postal": "10700",
    "latitude": 6.955003,
    "longitude": 80.211692
  },
  {
    "city": "Batawala",
    "district": "Colombo",
    "postal": "10513",
    "latitude": 6.877924,
    "longitude": 80.051592
  },
  {
    "city": "Battaramulla",
    "district": "Colombo",
    "postal": "10120",
    "latitude": 6.900299,
    "longitude": 79.922136
  },
  {
    "city": "Biyagama",
    "district": "Colombo",
    "postal": "11650",
    "latitude": 6.9408,
    "longitude": 79.9889
  },
  {
    "city": "Bope",
    "district": "Colombo",
    "postal": "10522",
    "latitude": 6.8333,
    "longitude": 80.1167
  },
  {
    "city": "Boralesgamuwa",
    "district": "Colombo",
    "postal": "10290",
    "latitude": 6.8425,
    "longitude": 79.9006
  },
  {
    "city": "Colombo 8",
    "district": "Colombo",
    "postal": "00800",
    "latitude": 6.914722,
    "longitude": 79.877778
  },
  {
    "city": "Dedigamuwa",
    "district": "Colombo",
    "postal": "10656",
    "latitude": 6.9115,
    "longitude": 80.0622
  },
  {
    "city": "Dehiwala",
    "district": "Colombo",
    "postal": "10350",
    "latitude": 6.856387,
    "longitude": 79.865156
  },
  {
    "city": "Deltara",
    "district": "Colombo",
    "postal": "10302",
    "latitude": 6.7833,
    "longitude": 79.9167
  },
  {
    "city": "Habarakada",
    "district": "Colombo",
    "postal": "10204",
    "latitude": 6.882518,
    "longitude": 80.017704
  },
  {
    "city": "Hanwella",
    "district": "Colombo",
    "postal": "10650",
    "latitude": 6.905988,
    "longitude": 80.083333
  },
  {
    "city": "Hiripitya",
    "district": "Colombo",
    "postal": "10232",
    "latitude": 6.85,
    "longitude": 79.95
  },
  {
    "city": "Hokandara",
    "district": "Colombo",
    "postal": "10118",
    "latitude": 6.890237,
    "longitude": 79.969894
  },
  {
    "city": "Homagama",
    "district": "Colombo",
    "postal": "10200",
    "latitude": 6.85685,
    "longitude": 80.005384
  },
  {
    "city": "Horagala",
    "district": "Colombo",
    "postal": "10502",
    "latitude": 6.807635,
    "longitude": 80.066995
  },
  {
    "city": "Kaduwela",
    "district": "Colombo",
    "postal": "10640",
    "latitude": 6.930497,
    "longitude": 79.984817
  },
  {
    "city": "Kaluaggala",
    "district": "Colombo",
    "postal": "11224",
    "latitude": 6.9167,
    "longitude": 80.1
  },
  {
    "city": "Kapugoda",
    "district": "Colombo",
    "postal": "10662",
    "latitude": 6.9486,
    "longitude": 80.1
  },
  {
    "city": "Kehelwatta",
    "district": "Colombo",
    "postal": "12550",
    "latitude": 6.75,
    "longitude": 79.9167
  },
  {
    "city": "Kiriwattuduwa",
    "district": "Colombo",
    "postal": "10208",
    "latitude": 6.804157,
    "longitude": 80.009759
  },
  {
    "city": "Kolonnawa",
    "district": "Colombo",
    "postal": "10600",
    "latitude": 6.933035,
    "longitude": 79.888095
  },
  {
    "city": "Kosgama",
    "district": "Colombo",
    "postal": "10730",
    "latitude": 6.9333,
    "longitude": 80.1411
  },
  {
    "city": "Madapatha",
    "district": "Colombo",
    "postal": "10306",
    "latitude": 6.766824,
    "longitude": 79.930103
  },
  {
    "city": "Maharagama",
    "district": "Colombo",
    "postal": "10280",
    "latitude": 6.843401,
    "longitude": 79.932766
  },
  {
    "city": "Malabe",
    "district": "Colombo",
    "postal": "10115",
    "latitude": 6.901241,
    "longitude": 79.958072
  },
  {
    "city": "Moratuwa",
    "district": "Colombo",
    "postal": "10400",
    "latitude": 6.7733,
    "longitude": 79.8825
  },
  {
    "city": "Mount Lavinia",
    "district": "Colombo",
    "postal": "10370",
    "latitude": 6.838864,
    "longitude": 79.863141
  },
  {
    "city": "Mullegama",
    "district": "Colombo",
    "postal": "10202",
    "latitude": 6.887403,
    "longitude": 80.012959
  },
  {
    "city": "Napawela",
    "district": "Colombo",
    "postal": "10704",
    "latitude": 6.9531,
    "longitude": 80.2183
  },
  {
    "city": "Nugegoda",
    "district": "Colombo",
    "postal": "10250",
    "latitude": 6.877563,
    "longitude": 79.886231
  },
  {
    "city": "Padukka",
    "district": "Colombo",
    "postal": "10500",
    "latitude": 6.837834,
    "longitude": 80.090301
  },
  {
    "city": "Pannipitiya",
    "district": "Colombo",
    "postal": "10230",
    "latitude": 6.843999,
    "longitude": 79.944518
  },
  {
    "city": "Piliyandala",
    "district": "Colombo",
    "postal": "10300",
    "latitude": 6.7981,
    "longitude": 79.9264
  },
  {
    "city": "Pitipana Homagama",
    "district": "Colombo",
    "postal": "10206",
    "latitude": 6.8477,
    "longitude": 80.016
  },
  {
    "city": "Polgasowita",
    "district": "Colombo",
    "postal": "10320",
    "latitude": 6.7842,
    "longitude": 79.9811
  },
  {
    "city": "Pugoda",
    "district": "Colombo",
    "postal": "10660",
    "latitude": 6.9703,
    "longitude": 80.1222
  },
  {
    "city": "Ranala",
    "district": "Colombo",
    "postal": "10654",
    "latitude": 6.915253,
    "longitude": 80.032962
  },
  {
    "city": "Siddamulla",
    "district": "Colombo",
    "postal": "10304",
    "latitude": 6.815785,
    "longitude": 79.955978
  },
  {
    "city": "Siyambalagoda",
    "district": "Colombo",
    "postal": "81462",
    "latitude": 6.800041,
    "longitude": 79.966845
  },
  {
    "city": "Sri Jayawardenepu",
    "district": "Colombo",
    "postal": "10100",
    "latitude": 6.8897,
    "longitude": 79.9359
  },
  {
    "city": "Talawatugoda",
    "district": "Colombo",
    "postal": "10116",
    "latitude": 6.8692,
    "longitude": 79.9411
  },
  {
    "city": "Tummodara",
    "district": "Colombo",
    "postal": "10682",
    "latitude": 6.9061,
    "longitude": 80.1353
  },
  {
    "city": "Waga",
    "district": "Colombo",
    "postal": "10680",
    "latitude": 6.9061,
    "longitude": 80.1353
  },
  {
    "city": "Colombo 6",
    "district": "Colombo",
    "postal": "00600",
    "latitude": 6.874657,
    "longitude": 79.860483
  },
  {
    "city": "Colombo 2",
    "district": "Colombo",
    "postal": "200",
    "latitude": 6.926944,
    "longitude": 79.848611
  },
  {
    "city": "Colombo 13",
    "district": "Colombo",
    "postal": "01300",
    "latitude": 6.942778,
    "longitude": 79.858611
  },
  {
    "city": "Colombo 1",
    "district": "Colombo",
    "postal": "100",
    "latitude": 6.925833,
    "longitude": 79.841667
  },
  {
    "city": "Colombo 3",
    "district": "Colombo",
    "postal": "300",
    "latitude": 6.900556,
    "longitude": 79.853333
  },
  {
    "city": "Colombo 4",
    "district": "Colombo",
    "postal": "400",
    "latitude": 6.888889,
    "longitude": 79.856667
  },
  {
    "city": "Colombo 5",
    "district": "Colombo",
    "postal": "500",
    "latitude": 6.879444,
    "longitude": 79.865278
  },
  {
    "city": "Colombo 7",
    "district": "Colombo",
    "postal": "700",
    "latitude": 6.906667,
    "longitude": 79.863333
  },
  {
    "city": "Colombo 9",
    "district": "Colombo",
    "postal": "900",
    "latitude": 6.93,
    "longitude": 79.877778
  },
  {
    "city": "Colombo 10",
    "district": "Colombo",
    "postal": "1000",
    "latitude": 6.928333,
    "longitude": 79.864167
  },
  {
    "city": "Colombo 11",
    "district": "Colombo",
    "postal": "1100",
    "latitude": 6.936667,
    "longitude": 79.849722
  },
  {
    "city": "Colombo 12",
    "district": "Colombo",
    "postal": "1200",
    "latitude": 6.9425,
    "longitude": 79.858333
  },
  {
    "city": "Colombo 14",
    "district": "Colombo",
    "postal": "1400",
    "latitude": 6.9475,
    "longitude": 79.874722
  },
  {
    "city": "Akkarasiyaya",
    "district": "Badulla",
    "postal": "90166",
    "latitude": 6.7792,
    "longitude": 80.9208
  },
  {
    "city": "Aluketiyawa",
    "district": "Badulla",
    "postal": "90736",
    "latitude": 7.317155,
    "longitude": 81.127134
  },
  {
    "city": "Aluttaramma",
    "district": "Badulla",
    "postal": "90722",
    "latitude": 7.2167,
    "longitude": 81.0667
  },
  {
    "city": "Ambadandegama",
    "district": "Badulla",
    "postal": "90108",
    "latitude": 6.81591,
    "longitude": 81.056492
  },
  {
    "city": "Ambagasdowa",
    "district": "Badulla",
    "postal": "90300",
    "latitude": 6.928519,
    "longitude": 80.892126
  },
  {
    "city": "Arawa",
    "district": "Badulla",
    "postal": "90017",
    "latitude": 7.162769,
    "longitude": 81.07755
  },
  {
    "city": "Arawakumbura",
    "district": "Badulla",
    "postal": "90532",
    "latitude": 7.084925,
    "longitude": 81.198802
  },
  {
    "city": "Arawatta",
    "district": "Badulla",
    "postal": "90712",
    "latitude": 7.328715,
    "longitude": 81.036976
  },
  {
    "city": "Atakiriya",
    "district": "Badulla",
    "postal": "90542",
    "latitude": 7.0667,
    "longitude": 81.1056
  },
  {
    "city": "Badulla",
    "district": "Badulla",
    "postal": "90000",
    "latitude": 6.995365,
    "longitude": 81.048438
  },
  {
    "city": "Baduluoya",
    "district": "Badulla",
    "postal": "90019",
    "latitude": 7.151852,
    "longitude": 81.023867
  },
  {
    "city": "Ballaketuwa",
    "district": "Badulla",
    "postal": "90092",
    "latitude": 6.862905,
    "longitude": 81.097249
  },
  {
    "city": "Bambarapana",
    "district": "Badulla",
    "postal": "90322",
    "latitude": 7.1167,
    "longitude": 81.0375
  },
  {
    "city": "Bandarawela",
    "district": "Badulla",
    "postal": "90100",
    "latitude": 6.828867,
    "longitude": 80.990898
  },
  {
    "city": "Beramada",
    "district": "Badulla",
    "postal": "90066",
    "latitude": 7.055713,
    "longitude": 80.987238
  },
  {
    "city": "Bibilegama",
    "district": "Badulla",
    "postal": "90502",
    "latitude": 6.887473,
    "longitude": 81.141268
  },
  {
    "city": "Boragas",
    "district": "Badulla",
    "postal": "90362",
    "latitude": 6.901625,
    "longitude": 80.840162
  },
  {
    "city": "Boralanda",
    "district": "Badulla",
    "postal": "90170",
    "latitude": 6.828637,
    "longitude": 80.881603
  },
  {
    "city": "Bowela",
    "district": "Badulla",
    "postal": "90302",
    "latitude": 6.95,
    "longitude": 80.9333
  },
  {
    "city": "Central Camp",
    "district": "Badulla",
    "postal": "32050",
    "latitude": 7.3589,
    "longitude": 81.1759
  },
  {
    "city": "Damanewela",
    "district": "Badulla",
    "postal": "32126",
    "latitude": 7.2125,
    "longitude": 81.0583
  },
  {
    "city": "Dambana",
    "district": "Badulla",
    "postal": "90714",
    "latitude": 7.3583,
    "longitude": 81.1083
  },
  {
    "city": "Dehiattakandiya",
    "district": "Badulla",
    "postal": "32150",
    "latitude": 7.2125,
    "longitude": 81.0583
  },
  {
    "city": "Demodara",
    "district": "Badulla",
    "postal": "90080",
    "latitude": 6.899055,
    "longitude": 81.053273
  },
  {
    "city": "Diganatenna",
    "district": "Badulla",
    "postal": "90132",
    "latitude": 6.8667,
    "longitude": 80.9667
  },
  {
    "city": "Dikkapitiya",
    "district": "Badulla",
    "postal": "90214",
    "latitude": 6.7381,
    "longitude": 80.9669
  },
  {
    "city": "Dimbulana",
    "district": "Badulla",
    "postal": "90324",
    "latitude": 7.006897,
    "longitude": 80.948431
  },
  {
    "city": "Divulapelessa",
    "district": "Badulla",
    "postal": "90726",
    "latitude": 7.2167,
    "longitude": 81.0667
  },
  {
    "city": "Diyatalawa",
    "district": "Badulla",
    "postal": "90150",
    "latitude": 6.8,
    "longitude": 80.9667
  },
  {
    "city": "Dulgolla",
    "district": "Badulla",
    "postal": "90104",
    "latitude": 6.819618,
    "longitude": 81.012115
  },
  {
    "city": "Ekiriyankumbura",
    "district": "Badulla",
    "postal": "91502",
    "latitude": 7.269736,
    "longitude": 81.226709
  },
  {
    "city": "Ella",
    "district": "Badulla",
    "postal": "90090",
    "latitude": 6.874485,
    "longitude": 81.050937
  },
  {
    "city": "Ettampitiya",
    "district": "Badulla",
    "postal": "90140",
    "latitude": 6.9342,
    "longitude": 80.9853
  },
  {
    "city": "Galauda",
    "district": "Badulla",
    "postal": "90065",
    "latitude": 7.037347,
    "longitude": 80.981759
  },
  {
    "city": "Galporuyaya",
    "district": "Badulla",
    "postal": "90752",
    "latitude": 7.4,
    "longitude": 81.05
  },
  {
    "city": "Gawarawela",
    "district": "Badulla",
    "postal": "90082",
    "latitude": 6.897394,
    "longitude": 81.069668
  },
  {
    "city": "Girandurukotte",
    "district": "Badulla",
    "postal": "90750",
    "latitude": 7.4,
    "longitude": 81.05
  },
  {
    "city": "Godunna",
    "district": "Badulla",
    "postal": "90067",
    "latitude": 7.071959,
    "longitude": 80.975003
  },
  {
    "city": "Gurutalawa",
    "district": "Badulla",
    "postal": "90208",
    "latitude": 6.8431,
    "longitude": 80.9228
  },
  {
    "city": "Haldummulla",
    "district": "Badulla",
    "postal": "90180",
    "latitude": 6.77061,
    "longitude": 80.884385
  },
  {
    "city": "Hali Ela",
    "district": "Badulla",
    "postal": "90060",
    "latitude": 6.95,
    "longitude": 81.0333
  },
  {
    "city": "Hangunnawa",
    "district": "Badulla",
    "postal": "90224",
    "latitude": 6.948019,
    "longitude": 80.871427
  },
  {
    "city": "Haputale",
    "district": "Badulla",
    "postal": "90160",
    "latitude": 6.7667,
    "longitude": 80.9667
  },
  {
    "city": "Hebarawa",
    "district": "Badulla",
    "postal": "90724",
    "latitude": 7.2167,
    "longitude": 81.0667
  },
  {
    "city": "Heeloya",
    "district": "Badulla",
    "postal": "90112",
    "latitude": 6.8212,
    "longitude": 80.9407
  },
  {
    "city": "Helahalpe",
    "district": "Badulla",
    "postal": "90122",
    "latitude": 6.8212,
    "longitude": 80.9407
  },
  {
    "city": "Helapupula",
    "district": "Badulla",
    "postal": "90094",
    "latitude": 6.8556,
    "longitude": 81.0722
  },
  {
    "city": "Hopton",
    "district": "Badulla",
    "postal": "90524",
    "latitude": 6.9594,
    "longitude": 81.1552
  },
  {
    "city": "Idalgashinna",
    "district": "Badulla",
    "postal": "96167",
    "latitude": 6.7833,
    "longitude": 80.9
  },
  {
    "city": "Kahataruppa",
    "district": "Badulla",
    "postal": "90052",
    "latitude": 7.023705,
    "longitude": 81.105188
  },
  {
    "city": "Kalugahakandura",
    "district": "Badulla",
    "postal": "90546",
    "latitude": 7.123675,
    "longitude": 81.094178
  },
  {
    "city": "Kalupahana",
    "district": "Badulla",
    "postal": "90186",
    "latitude": 6.770298,
    "longitude": 80.854521
  },
  {
    "city": "Kebillawela",
    "district": "Badulla",
    "postal": "90102",
    "latitude": 6.816937,
    "longitude": 80.993072
  },
  {
    "city": "Kendagolla",
    "district": "Badulla",
    "postal": "90048",
    "latitude": 6.990765,
    "longitude": 81.110073
  },
  {
    "city": "Keselpotha",
    "district": "Badulla",
    "postal": "90738",
    "latitude": 7.32819,
    "longitude": 81.083285
  },
  {
    "city": "Ketawatta",
    "district": "Badulla",
    "postal": "90016",
    "latitude": 7.103503,
    "longitude": 81.080813
  },
  {
    "city": "Kiriwanagama",
    "district": "Badulla",
    "postal": "90184",
    "latitude": 6.971183,
    "longitude": 80.91551
  },
  {
    "city": "Koslanda",
    "district": "Badulla",
    "postal": "90190",
    "latitude": 6.759935,
    "longitude": 81.027417
  },
  {
    "city": "Kuruwitenna",
    "district": "Badulla",
    "postal": "90728",
    "latitude": 7.2167,
    "longitude": 81.0667
  },
  {
    "city": "Kuttiyagolla",
    "district": "Badulla",
    "postal": "90046",
    "latitude": 7.0167,
    "longitude": 81.0833
  },
  {
    "city": "Landewela",
    "district": "Badulla",
    "postal": "90068",
    "latitude": 7.002113,
    "longitude": 81.000496
  },
  {
    "city": "Liyangahawela",
    "district": "Badulla",
    "postal": "90106",
    "latitude": 6.817452,
    "longitude": 81.032456
  },
  {
    "city": "Lunugala",
    "district": "Badulla",
    "postal": "90530",
    "latitude": 7.041299,
    "longitude": 81.199335
  },
  {
    "city": "Lunuwatta",
    "district": "Badulla",
    "postal": "90310",
    "latitude": 6.953933,
    "longitude": 80.917059
  },
  {
    "city": "Madulsima",
    "district": "Badulla",
    "postal": "90535",
    "latitude": 7.045064,
    "longitude": 81.133375
  },
  {
    "city": "Mahiyanganaya",
    "district": "Badulla",
    "postal": "90700",
    "latitude": 7.2444,
    "longitude": 81.1167
  },
  {
    "city": "Makulella",
    "district": "Badulla",
    "postal": "90114",
    "latitude": 6.8212,
    "longitude": 80.9407
  },
  {
    "city": "Malgoda",
    "district": "Badulla",
    "postal": "90754",
    "latitude": 7.4,
    "longitude": 81.05
  },
  {
    "city": "Mapakadawewa",
    "district": "Badulla",
    "postal": "90730",
    "latitude": 7.3,
    "longitude": 81.1167
  },
  {
    "city": "Maspanna",
    "district": "Badulla",
    "postal": "90328",
    "latitude": 7.024427,
    "longitude": 80.942159
  },
  {
    "city": "Maussagolla",
    "district": "Badulla",
    "postal": "90582",
    "latitude": 6.898433,
    "longitude": 81.147817
  },
  {
    "city": "Mawanagama",
    "district": "Badulla",
    "postal": "32158",
    "latitude": 7.2125,
    "longitude": 81.0583
  },
  {
    "city": "Medawela Udukinda",
    "district": "Badulla",
    "postal": "90218",
    "latitude": 6.846,
    "longitude": 80.9279
  },
  {
    "city": "Meegahakiula",
    "district": "Badulla",
    "postal": "90015",
    "latitude": 7.0833,
    "longitude": 80.9833
  },
  {
    "city": "Metigahatenna",
    "district": "Badulla",
    "postal": "90540",
    "latitude": 6.9667,
    "longitude": 81.0833
  },
  {
    "city": "Mirahawatta",
    "district": "Badulla",
    "postal": "90134",
    "latitude": 6.8817,
    "longitude": 80.9347
  },
  {
    "city": "Miriyabedda",
    "district": "Badulla",
    "postal": "90504",
    "latitude": 6.9167,
    "longitude": 81.15
  },
  {
    "city": "Nawamedagama",
    "district": "Badulla",
    "postal": "32120",
    "latitude": 7.2125,
    "longitude": 81.0583
  },
  {
    "city": "Nelumgama",
    "district": "Badulla",
    "postal": "90042",
    "latitude": 7,
    "longitude": 81.0917
  },
  {
    "city": "Nikapotha",
    "district": "Badulla",
    "postal": "90165",
    "latitude": 6.740622,
    "longitude": 80.97083
  },
  {
    "city": "Nugatalawa",
    "district": "Badulla",
    "postal": "90216",
    "latitude": 6.9,
    "longitude": 80.8833
  },
  {
    "city": "Ohiya",
    "district": "Badulla",
    "postal": "90168",
    "latitude": 6.821352,
    "longitude": 80.841789
  },
  {
    "city": "Pahalarathkinda",
    "district": "Badulla",
    "postal": "90756",
    "latitude": 7.4,
    "longitude": 81.05
  },
  {
    "city": "Pallekiruwa",
    "district": "Badulla",
    "postal": "90534",
    "latitude": 7.007551,
    "longitude": 81.227033
  },
  {
    "city": "Passara",
    "district": "Badulla",
    "postal": "90500",
    "latitude": 6.935017,
    "longitude": 81.151166
  },
  {
    "city": "Pattiyagedara",
    "district": "Badulla",
    "postal": "90138",
    "latitude": 6.8742,
    "longitude": 80.9507
  },
  {
    "city": "Pelagahatenna",
    "district": "Badulla",
    "postal": "90522",
    "latitude": 6.9594,
    "longitude": 81.1552
  },
  {
    "city": "Perawella",
    "district": "Badulla",
    "postal": "90222",
    "latitude": 6.943148,
    "longitude": 80.84264
  },
  {
    "city": "Pitamaruwa",
    "district": "Badulla",
    "postal": "90544",
    "latitude": 7.106546,
    "longitude": 81.135882
  },
  {
    "city": "Pitapola",
    "district": "Badulla",
    "postal": "90171",
    "latitude": 6.803692,
    "longitude": 80.884474
  },
  {
    "city": "Puhulpola",
    "district": "Badulla",
    "postal": "90212",
    "latitude": 6.907145,
    "longitude": 80.931109
  },
  {
    "city": "Rajagalatenna",
    "district": "Badulla",
    "postal": "32068",
    "latitude": 7.5458,
    "longitude": 81.125
  },
  {
    "city": "Ratkarawwa",
    "district": "Badulla",
    "postal": "90164",
    "latitude": 6.8,
    "longitude": 80.9167
  },
  {
    "city": "Ridimaliyadda",
    "district": "Badulla",
    "postal": "90704",
    "latitude": 7.2333,
    "longitude": 81.1
  },
  {
    "city": "Silmiyapura",
    "district": "Badulla",
    "postal": "90364",
    "latitude": 6.912388,
    "longitude": 80.843988
  },
  {
    "city": "Sirimalgoda",
    "district": "Badulla",
    "postal": "90044",
    "latitude": 7.003857,
    "longitude": 81.073671
  },
  {
    "city": "Siripura",
    "district": "Badulla",
    "postal": "32155",
    "latitude": 7.2125,
    "longitude": 81.0583
  },
  {
    "city": "Sorabora Colony",
    "district": "Badulla",
    "postal": "90718",
    "latitude": 7.3583,
    "longitude": 81.1083
  },
  {
    "city": "Soragune",
    "district": "Badulla",
    "postal": "90183",
    "latitude": 6.8333,
    "longitude": 80.8778
  },
  {
    "city": "Soranatota",
    "district": "Badulla",
    "postal": "90008",
    "latitude": 7.0167,
    "longitude": 81.05
  },
  {
    "city": "Taldena",
    "district": "Badulla",
    "postal": "90014",
    "latitude": 7.0833,
    "longitude": 81.05
  },
  {
    "city": "Timbirigaspitiya",
    "district": "Badulla",
    "postal": "90012",
    "latitude": 7.0333,
    "longitude": 81.05
  },
  {
    "city": "Uduhawara",
    "district": "Badulla",
    "postal": "90226",
    "latitude": 6.94706,
    "longitude": 80.85877
  },
  {
    "city": "Uraniya",
    "district": "Badulla",
    "postal": "90702",
    "latitude": 7.237143,
    "longitude": 81.102818
  },
  {
    "city": "Uva Karandagolla",
    "district": "Badulla",
    "postal": "90091",
    "latitude": 6.8333,
    "longitude": 81.0667
  },
  {
    "city": "Uva Mawelagama",
    "district": "Badulla",
    "postal": "90192",
    "latitude": 6.7333,
    "longitude": 81.0167
  },
  {
    "city": "Uva Tenna",
    "district": "Badulla",
    "postal": "90188",
    "latitude": 6.8333,
    "longitude": 80.8778
  },
  {
    "city": "Uva Tissapura",
    "district": "Badulla",
    "postal": "90734",
    "latitude": 7.3,
    "longitude": 81.1167
  },
  {
    "city": "Welimada",
    "district": "Badulla",
    "postal": "90200",
    "latitude": 6.906059,
    "longitude": 80.913222
  },
  {
    "city": "Werunketagoda",
    "district": "Badulla",
    "postal": "32062",
    "latitude": 7.5458,
    "longitude": 81.125
  },
  {
    "city": "Wewatta",
    "district": "Badulla",
    "postal": "90716",
    "latitude": 7.337729,
    "longitude": 81.201255
  },
  {
    "city": "Wineethagama",
    "district": "Badulla",
    "postal": "90034",
    "latitude": 7.029,
    "longitude": 80.937
  },
  {
    "city": "Yalagamuwa",
    "district": "Badulla",
    "postal": "90329",
    "latitude": 7.047834,
    "longitude": 80.950541
  },
  {
    "city": "Yalwela",
    "district": "Badulla",
    "postal": "90706",
    "latitude": 7.2667,
    "longitude": 81.15
  },
  {
    "city": "Addalaichenai",
    "district": "Batticaloa",
    "postal": "32350",
    "latitude": 7.4833,
    "longitude": 81.75
  },
  {
    "city": "Ampilanthurai",
    "district": "Batticaloa",
    "postal": "30162",
    "latitude": 7.8597,
    "longitude": 81.4411
  },
  {
    "city": "Araipattai",
    "district": "Batticaloa",
    "postal": "30150",
    "latitude": 7.667705,
    "longitude": 81.725335
  },
  {
    "city": "Ayithiyamalai",
    "district": "Batticaloa",
    "postal": "30362",
    "latitude": 7.670934,
    "longitude": 81.574798
  },
  {
    "city": "Bakiella",
    "district": "Batticaloa",
    "postal": "30206",
    "latitude": 7.5083,
    "longitude": 81.7583
  },
  {
    "city": "Batticaloa",
    "district": "Batticaloa",
    "postal": "30000",
    "latitude": 7.7167,
    "longitude": 81.7
  },
  {
    "city": "Cheddipalayam",
    "district": "Batticaloa",
    "postal": "30194",
    "latitude": 7.575161,
    "longitude": 81.783189
  },
  {
    "city": "Chenkaladi",
    "district": "Batticaloa",
    "postal": "30350",
    "latitude": 7.7833,
    "longitude": 81.6
  },
  {
    "city": "Eravur",
    "district": "Batticaloa",
    "postal": "30300",
    "latitude": 7.768518,
    "longitude": 81.619817
  },
  {
    "city": "Kaluwanchikudi",
    "district": "Batticaloa",
    "postal": "30200",
    "latitude": 7.5167,
    "longitude": 81.7833
  },
  {
    "city": "Kaluwankemy",
    "district": "Batticaloa",
    "postal": "30372",
    "latitude": 7.8,
    "longitude": 81.5667
  },
  {
    "city": "Kannankudah",
    "district": "Batticaloa",
    "postal": "30016",
    "latitude": 7.675505,
    "longitude": 81.674125
  },
  {
    "city": "Karadiyanaru",
    "district": "Batticaloa",
    "postal": "30354",
    "latitude": 7.689478,
    "longitude": 81.531117
  },
  {
    "city": "Kathiraveli",
    "district": "Batticaloa",
    "postal": "30456",
    "latitude": 8.243933,
    "longitude": 81.360298
  },
  {
    "city": "Kattankudi",
    "district": "Batticaloa",
    "postal": "30100",
    "latitude": 7.675,
    "longitude": 81.73
  },
  {
    "city": "Kiran",
    "district": "Batticaloa",
    "postal": "30394",
    "latitude": 7.866841,
    "longitude": 81.529737
  },
  {
    "city": "Kirankulam",
    "district": "Batticaloa",
    "postal": "30159",
    "latitude": 7.615628,
    "longitude": 81.764245
  },
  {
    "city": "Koddaikallar",
    "district": "Batticaloa",
    "postal": "30249",
    "latitude": 7.6389,
    "longitude": 81.6639
  },
  {
    "city": "Kokkaddichcholai",
    "district": "Batticaloa",
    "postal": "30160",
    "latitude": 7.8597,
    "longitude": 81.4411
  },
  {
    "city": "Kurukkalmadam",
    "district": "Batticaloa",
    "postal": "30192",
    "latitude": 7.594069,
    "longitude": 81.77497
  },
  {
    "city": "Mandur",
    "district": "Batticaloa",
    "postal": "30220",
    "latitude": 7.482114,
    "longitude": 81.762407
  },
  {
    "city": "Miravodai",
    "district": "Batticaloa",
    "postal": "30426",
    "latitude": 7.9,
    "longitude": 81.5167
  },
  {
    "city": "Murakottanchanai",
    "district": "Batticaloa",
    "postal": "30392",
    "latitude": 7.8667,
    "longitude": 81.5333
  },
  {
    "city": "Navagirinagar",
    "district": "Batticaloa",
    "postal": "30238",
    "latitude": 7.525,
    "longitude": 81.725
  },
  {
    "city": "Navatkadu",
    "district": "Batticaloa",
    "postal": "30018",
    "latitude": 7.5833,
    "longitude": 81.7167
  },
  {
    "city": "Oddamavadi",
    "district": "Batticaloa",
    "postal": "30420",
    "latitude": 7.9167,
    "longitude": 81.5167
  },
  {
    "city": "Palamunai",
    "district": "Batticaloa",
    "postal": "32354",
    "latitude": 7.4833,
    "longitude": 81.75
  },
  {
    "city": "Pankudavely",
    "district": "Batticaloa",
    "postal": "30352",
    "latitude": 7.75,
    "longitude": 81.5667
  },
  {
    "city": "Periyaporativu",
    "district": "Batticaloa",
    "postal": "30230",
    "latitude": 7.536243,
    "longitude": 81.764557
  },
  {
    "city": "Periyapullumalai",
    "district": "Batticaloa",
    "postal": "30358",
    "latitude": 7.561255,
    "longitude": 81.47434
  },
  {
    "city": "Pillaiyaradi",
    "district": "Batticaloa",
    "postal": "30022",
    "latitude": 7.75,
    "longitude": 81.6333
  },
  {
    "city": "Punanai",
    "district": "Batticaloa",
    "postal": "30428",
    "latitude": 7.9667,
    "longitude": 81.3833
  },
  {
    "city": "Thannamunai",
    "district": "Batticaloa",
    "postal": "30024",
    "latitude": 7.76355,
    "longitude": 81.645852
  },
  {
    "city": "Thettativu",
    "district": "Batticaloa",
    "postal": "30196",
    "latitude": 7.5833,
    "longitude": 81.7833
  },
  {
    "city": "Thikkodai",
    "district": "Batticaloa",
    "postal": "30236",
    "latitude": 7.525269,
    "longitude": 81.684177
  },
  {
    "city": "Thirupalugamam",
    "district": "Batticaloa",
    "postal": "30234",
    "latitude": 7.525,
    "longitude": 81.725
  },
  {
    "city": "Unnichchai",
    "district": "Batticaloa",
    "postal": "30364",
    "latitude": 7.6167,
    "longitude": 81.55
  },
  {
    "city": "Vakaneri",
    "district": "Batticaloa",
    "postal": "30424",
    "latitude": 7.9167,
    "longitude": 81.4333
  },
  {
    "city": "Vakarai",
    "district": "Batticaloa",
    "postal": "30450",
    "latitude": 8.165968,
    "longitude": 81.415623
  },
  {
    "city": "Valaichenai",
    "district": "Batticaloa",
    "postal": "30400",
    "latitude": 7.7,
    "longitude": 81.6
  },
  {
    "city": "Vantharumoolai",
    "district": "Batticaloa",
    "postal": "30376",
    "latitude": 7.807445,
    "longitude": 81.591476
  },
  {
    "city": "Vellavely",
    "district": "Batticaloa",
    "postal": "30204",
    "latitude": 7.5,
    "longitude": 81.7333
  },
  {
    "city": "Agaliya",
    "district": "Galle",
    "postal": "80212",
    "latitude": 6.1833,
    "longitude": 80.2
  },
  {
    "city": "Ahangama",
    "district": "Galle",
    "postal": "80650",
    "latitude": 5.970765,
    "longitude": 80.370204
  },
  {
    "city": "Ahungalla",
    "district": "Galle",
    "postal": "80562",
    "latitude": 6.315216,
    "longitude": 80.03029
  },
  {
    "city": "Akmeemana",
    "district": "Galle",
    "postal": "80090",
    "latitude": 6.1845,
    "longitude": 80.3032
  },
  {
    "city": "Alawatugoda",
    "district": "Galle",
    "postal": "20140",
    "latitude": 6.4167,
    "longitude": 80
  },
  {
    "city": "Aluthwala",
    "district": "Galle",
    "postal": "80332",
    "latitude": 6.180801,
    "longitude": 80.136538
  },
  {
    "city": "Ampegama",
    "district": "Galle",
    "postal": "80204",
    "latitude": 6.193907,
    "longitude": 80.14453
  },
  {
    "city": "Amugoda",
    "district": "Galle",
    "postal": "80422",
    "latitude": 6.314635,
    "longitude": 80.22104
  },
  {
    "city": "Anangoda",
    "district": "Galle",
    "postal": "80044",
    "latitude": 6.0722,
    "longitude": 80.2389
  },
  {
    "city": "Angulugaha",
    "district": "Galle",
    "postal": "80122",
    "latitude": 6.036963,
    "longitude": 80.322148
  },
  {
    "city": "Ankokkawala",
    "district": "Galle",
    "postal": "80048",
    "latitude": 6.05329,
    "longitude": 80.274014
  },
  {
    "city": "Aselapura",
    "district": "Galle",
    "postal": "51072",
    "latitude": 6.3167,
    "longitude": 80.0333
  },
  {
    "city": "Baddegama",
    "district": "Galle",
    "postal": "80200",
    "latitude": 6.165975,
    "longitude": 80.201841
  },
  {
    "city": "Balapitiya",
    "district": "Galle",
    "postal": "80550",
    "latitude": 6.269254,
    "longitude": 80.036054
  },
  {
    "city": "Banagala",
    "district": "Galle",
    "postal": "80143",
    "latitude": 6.2706,
    "longitude": 80.42
  },
  {
    "city": "Batapola",
    "district": "Galle",
    "postal": "80320",
    "latitude": 6.235697,
    "longitude": 80.120034
  },
  {
    "city": "Bentota",
    "district": "Galle",
    "postal": "80500",
    "latitude": 6.4211,
    "longitude": 79.9989
  },
  {
    "city": "Boossa",
    "district": "Galle",
    "postal": "80270",
    "latitude": 6.2233,
    "longitude": 80.2
  },
  {
    "city": "Dellawa",
    "district": "Galle",
    "postal": "81477",
    "latitude": 6.335012,
    "longitude": 80.452741
  },
  {
    "city": "Dikkumbura",
    "district": "Galle",
    "postal": "80654",
    "latitude": 6.012945,
    "longitude": 80.376153
  },
  {
    "city": "Dodanduwa",
    "district": "Galle",
    "postal": "80250",
    "latitude": 6.0967,
    "longitude": 80.1456
  },
  {
    "city": "Ella Tanabaddegama",
    "district": "Galle",
    "postal": "80402",
    "latitude": 6.2922,
    "longitude": 80.1988
  },
  {
    "city": "Elpitiya",
    "district": "Galle",
    "postal": "80400",
    "latitude": 6.300214,
    "longitude": 80.171923
  },
  {
    "city": "Galle",
    "district": "Galle",
    "postal": "80000",
    "latitude": 6.0536,
    "longitude": 80.2117
  },
  {
    "city": "Ginimellagaha",
    "district": "Galle",
    "postal": "80220",
    "latitude": 6.2233,
    "longitude": 80.2
  },
  {
    "city": "Gintota",
    "district": "Galle",
    "postal": "80280",
    "latitude": 6.0564,
    "longitude": 80.1839
  },
  {
    "city": "Godahena",
    "district": "Galle",
    "postal": "80302",
    "latitude": 6.2333,
    "longitude": 80.0667
  },
  {
    "city": "Gonamulla Junction",
    "district": "Galle",
    "postal": "80054",
    "latitude": 6.0667,
    "longitude": 80.3
  },
  {
    "city": "Gonapinuwala",
    "district": "Galle",
    "postal": "80230",
    "latitude": 6.2233,
    "longitude": 80.2
  },
  {
    "city": "Habaraduwa",
    "district": "Galle",
    "postal": "80630",
    "latitude": 6.0043,
    "longitude": 80.326
  },
  {
    "city": "Haburugala",
    "district": "Galle",
    "postal": "80506",
    "latitude": 6.4052,
    "longitude": 80.038306
  },
  {
    "city": "Hikkaduwa",
    "district": "Galle",
    "postal": "80240",
    "latitude": 6.139535,
    "longitude": 80.113201
  },
  {
    "city": "Hiniduma",
    "district": "Galle",
    "postal": "80080",
    "latitude": 6.316028,
    "longitude": 80.328888
  },
  {
    "city": "Hiyare",
    "district": "Galle",
    "postal": "80056",
    "latitude": 6.079898,
    "longitude": 80.317871
  },
  {
    "city": "Kahaduwa",
    "district": "Galle",
    "postal": "80460",
    "latitude": 6.2244,
    "longitude": 80.21
  },
  {
    "city": "Kahawa",
    "district": "Galle",
    "postal": "80312",
    "latitude": 6.185429,
    "longitude": 80.07601
  },
  {
    "city": "Karagoda",
    "district": "Galle",
    "postal": "80151",
    "latitude": 6.084182,
    "longitude": 80.395041
  },
  {
    "city": "Karandeniya",
    "district": "Galle",
    "postal": "80360",
    "latitude": 6.260467,
    "longitude": 80.072462
  },
  {
    "city": "Kosgoda",
    "district": "Galle",
    "postal": "80570",
    "latitude": 6.332288,
    "longitude": 80.028315
  },
  {
    "city": "Kottawagama",
    "district": "Galle",
    "postal": "80062",
    "latitude": 6.1375,
    "longitude": 80.3419
  },
  {
    "city": "Kottegoda",
    "district": "Galle",
    "postal": "81180",
    "latitude": 6.1667,
    "longitude": 80.1
  },
  {
    "city": "Kuleegoda",
    "district": "Galle",
    "postal": "80328",
    "latitude": 6.2167,
    "longitude": 80.1167
  },
  {
    "city": "Magedara",
    "district": "Galle",
    "postal": "80152",
    "latitude": 6.108129,
    "longitude": 80.393927
  },
  {
    "city": "Mahawela Sinhapura",
    "district": "Galle",
    "postal": "51076",
    "latitude": 6.3167,
    "longitude": 80.0333
  },
  {
    "city": "Mapalagama",
    "district": "Galle",
    "postal": "80112",
    "latitude": 6.234713,
    "longitude": 80.27784
  },
  {
    "city": "Mapalagama Central",
    "district": "Galle",
    "postal": "80116",
    "latitude": 6.2167,
    "longitude": 80.3
  },
  {
    "city": "Mattaka",
    "district": "Galle",
    "postal": "80424",
    "latitude": 6.302366,
    "longitude": 80.254218
  },
  {
    "city": "Meda-Keembiya",
    "district": "Galle",
    "postal": "80092",
    "latitude": 6.1845,
    "longitude": 80.3032
  },
  {
    "city": "Meetiyagoda",
    "district": "Galle",
    "postal": "80330",
    "latitude": 6.189135,
    "longitude": 80.093504
  },
  {
    "city": "Nagoda",
    "district": "Galle",
    "postal": "80110",
    "latitude": 6.201296,
    "longitude": 80.277829
  },
  {
    "city": "Nakiyadeniya",
    "district": "Galle",
    "postal": "80064",
    "latitude": 6.143029,
    "longitude": 80.338164
  },
  {
    "city": "Nawadagala",
    "district": "Galle",
    "postal": "80416",
    "latitude": 6.304655,
    "longitude": 80.134175
  },
  {
    "city": "Neluwa",
    "district": "Galle",
    "postal": "80082",
    "latitude": 6.37393,
    "longitude": 80.363267
  },
  {
    "city": "Nindana",
    "district": "Galle",
    "postal": "80318",
    "latitude": 6.207731,
    "longitude": 80.107663
  },
  {
    "city": "Pahala Millawa",
    "district": "Galle",
    "postal": "81472",
    "latitude": 6.293995,
    "longitude": 80.475431
  },
  {
    "city": "Panangala",
    "district": "Galle",
    "postal": "80075",
    "latitude": 6.274182,
    "longitude": 80.334525
  },
  {
    "city": "Pannimulla Panagoda",
    "district": "Galle",
    "postal": "80086",
    "latitude": 6.36,
    "longitude": 80.3653
  },
  {
    "city": "Parana ThanaYamgoda",
    "district": "Galle",
    "postal": "80114",
    "latitude": 6.2167,
    "longitude": 80.3
  },
  {
    "city": "Patana",
    "district": "Galle",
    "postal": "22012",
    "latitude": 6.1333,
    "longitude": 80.1167
  },
  {
    "city": "Pitigala",
    "district": "Galle",
    "postal": "80420",
    "latitude": 6.348894,
    "longitude": 80.217851
  },
  {
    "city": "Poddala",
    "district": "Galle",
    "postal": "80170",
    "latitude": 6.1167,
    "longitude": 80.2167
  },
  {
    "city": "Polgampola",
    "district": "Galle",
    "postal": "12136",
    "latitude": 6.3244,
    "longitude": 80.4383
  },
  {
    "city": "Porawagama",
    "district": "Galle",
    "postal": "80408",
    "latitude": 6.279568,
    "longitude": 80.231811
  },
  {
    "city": "Rantotuwila",
    "district": "Galle",
    "postal": "80354",
    "latitude": 6.3833,
    "longitude": 80.0833
  },
  {
    "city": "Talagampola",
    "district": "Galle",
    "postal": "80058",
    "latitude": 6.0667,
    "longitude": 80.3
  },
  {
    "city": "Talgaspe",
    "district": "Galle",
    "postal": "80406",
    "latitude": 6.3,
    "longitude": 80.2
  },
  {
    "city": "Talpe",
    "district": "Galle",
    "postal": "80615",
    "latitude": 6.0061,
    "longitude": 80.2961
  },
  {
    "city": "Tawalama",
    "district": "Galle",
    "postal": "80148",
    "latitude": 6.3333,
    "longitude": 80.3333
  },
  {
    "city": "Tiranagama",
    "district": "Galle",
    "postal": "80244",
    "latitude": 6.1333,
    "longitude": 80.1167
  },
  {
    "city": "Udalamatta",
    "district": "Galle",
    "postal": "80108",
    "latitude": 6.18924,
    "longitude": 80.306106
  },
  {
    "city": "Udugama",
    "district": "Galle",
    "postal": "80070",
    "latitude": 6.188469,
    "longitude": 80.338951
  },
  {
    "city": "Uluvitike",
    "district": "Galle",
    "postal": "80168",
    "latitude": 6.3056,
    "longitude": 80.309
  },
  {
    "city": "Unawatuna",
    "district": "Galle",
    "postal": "80600",
    "latitude": 6.0169,
    "longitude": 80.249901
  },
  {
    "city": "Unenwitiya",
    "district": "Galle",
    "postal": "80214",
    "latitude": 6.2417,
    "longitude": 80.225
  },
  {
    "city": "Uragaha",
    "district": "Galle",
    "postal": "80352",
    "latitude": 6.35,
    "longitude": 80.1167
  },
  {
    "city": "Uragasmanhandiya",
    "district": "Galle",
    "postal": "80350",
    "latitude": 6.358461,
    "longitude": 80.082277
  },
  {
    "city": "Wakwella",
    "district": "Galle",
    "postal": "80042",
    "latitude": 6.1,
    "longitude": 80.1833
  },
  {
    "city": "Walahanduwa",
    "district": "Galle",
    "postal": "80046",
    "latitude": 6.05443,
    "longitude": 80.251763
  },
  {
    "city": "Wanchawela",
    "district": "Galle",
    "postal": "80120",
    "latitude": 6.0333,
    "longitude": 80.3167
  },
  {
    "city": "Wanduramba",
    "district": "Galle",
    "postal": "80100",
    "latitude": 6.136388,
    "longitude": 80.252794
  },
  {
    "city": "Warukandeniya",
    "district": "Galle",
    "postal": "80084",
    "latitude": 6.381574,
    "longitude": 80.43131
  },
  {
    "city": "Watugedara",
    "district": "Galle",
    "postal": "80340",
    "latitude": 6.25,
    "longitude": 80.05
  },
  {
    "city": "Weihena",
    "district": "Galle",
    "postal": "80216",
    "latitude": 6.310127,
    "longitude": 80.23392
  },
  {
    "city": "Welikanda",
    "district": "Galle",
    "postal": "51070",
    "latitude": 6.3167,
    "longitude": 80.0333
  },
  {
    "city": "Wilanagama",
    "district": "Galle",
    "postal": "20142",
    "latitude": 6.4167,
    "longitude": 80
  },
  {
    "city": "Yakkalamulla",
    "district": "Galle",
    "postal": "80150",
    "latitude": 6.109027,
    "longitude": 80.349195
  },
  {
    "city": "Yatalamatta",
    "district": "Galle",
    "postal": "80107",
    "latitude": 6.172247,
    "longitude": 80.293052
  },
  {
    "city": "Akaragama",
    "district": "Gampaha",
    "postal": "11536",
    "latitude": 7.262603,
    "longitude": 79.958057
  },
  {
    "city": "Ambagaspitiya",
    "district": "Gampaha",
    "postal": "11052",
    "latitude": 7.0833,
    "longitude": 80.0667
  },
  {
    "city": "Ambepussa",
    "district": "Gampaha",
    "postal": "11212",
    "latitude": 7.25,
    "longitude": 80.1667
  },
  {
    "city": "Andiambalama",
    "district": "Gampaha",
    "postal": "11558",
    "latitude": 7.188346,
    "longitude": 79.902344
  },
  {
    "city": "Attanagalla",
    "district": "Gampaha",
    "postal": "11120",
    "latitude": 7.1119,
    "longitude": 80.1328
  },
  {
    "city": "Badalgama",
    "district": "Gampaha",
    "postal": "11538",
    "latitude": 7.291218,
    "longitude": 79.978003
  },
  {
    "city": "Banduragoda",
    "district": "Gampaha",
    "postal": "11244",
    "latitude": 7.2319,
    "longitude": 80.0678
  },
  {
    "city": "Batuwatta",
    "district": "Gampaha",
    "postal": "11011",
    "latitude": 7.058399,
    "longitude": 79.932048
  },
  {
    "city": "Bemmulla",
    "district": "Gampaha",
    "postal": "11040",
    "latitude": 7.120933,
    "longitude": 80.028191
  },
  {
    "city": "Biyagama IPZ",
    "district": "Gampaha",
    "postal": "11672",
    "latitude": 6.9492,
    "longitude": 80.0153
  },
  {
    "city": "Bokalagama",
    "district": "Gampaha",
    "postal": "11216",
    "latitude": 7.2333,
    "longitude": 80.15
  },
  {
    "city": "Bollete WP)",
    "district": "Gampaha",
    "postal": "11024",
    "latitude": 7.0667,
    "longitude": 79.95
  },
  {
    "city": "Bopagama",
    "district": "Gampaha",
    "postal": "11134",
    "latitude": 7.079641,
    "longitude": 80.15868
  },
  {
    "city": "Buthpitiya",
    "district": "Gampaha",
    "postal": "11720",
    "latitude": 7.042846,
    "longitude": 80.051854
  },
  {
    "city": "Dagonna",
    "district": "Gampaha",
    "postal": "11524",
    "latitude": 7.221568,
    "longitude": 79.927455
  },
  {
    "city": "Danowita",
    "district": "Gampaha",
    "postal": "11896",
    "latitude": 7.2028,
    "longitude": 80.1758
  },
  {
    "city": "Debahera",
    "district": "Gampaha",
    "postal": "11889",
    "latitude": 7.1389,
    "longitude": 80.0981
  },
  {
    "city": "Dekatana",
    "district": "Gampaha",
    "postal": "11690",
    "latitude": 6.968317,
    "longitude": 80.035385
  },
  {
    "city": "Delgoda",
    "district": "Gampaha",
    "postal": "11700",
    "latitude": 6.986583,
    "longitude": 80.01576
  },
  {
    "city": "Delwagura",
    "district": "Gampaha",
    "postal": "11228",
    "latitude": 7.265367,
    "longitude": 80.003272
  },
  {
    "city": "Demalagama",
    "district": "Gampaha",
    "postal": "11692",
    "latitude": 6.988934,
    "longitude": 80.046886
  },
  {
    "city": "Demanhandiya",
    "district": "Gampaha",
    "postal": "11270",
    "latitude": 7.2333,
    "longitude": 79.9
  },
  {
    "city": "Dewalapola",
    "district": "Gampaha",
    "postal": "11102",
    "latitude": 7.162553,
    "longitude": 79.997446
  },
  {
    "city": "Divulapitiya",
    "district": "Gampaha",
    "postal": "11250",
    "latitude": 7.2167,
    "longitude": 80.0156
  },
  {
    "city": "Divuldeniya",
    "district": "Gampaha",
    "postal": "11208",
    "latitude": 7.3,
    "longitude": 80.1
  },
  {
    "city": "Dompe",
    "district": "Gampaha",
    "postal": "11680",
    "latitude": 6.949806,
    "longitude": 80.055083
  },
  {
    "city": "Dunagaha",
    "district": "Gampaha",
    "postal": "11264",
    "latitude": 7.2342,
    "longitude": 79.9756
  },
  {
    "city": "Ekala",
    "district": "Gampaha",
    "postal": "11380",
    "latitude": 7.105558,
    "longitude": 79.91532
  },
  {
    "city": "Ellakkala",
    "district": "Gampaha",
    "postal": "11116",
    "latitude": 7.135968,
    "longitude": 80.132524
  },
  {
    "city": "Essella",
    "district": "Gampaha",
    "postal": "11108",
    "latitude": 7.178736,
    "longitude": 80.021603
  },
  {
    "city": "Galedanda",
    "district": "Gampaha",
    "postal": "90206",
    "latitude": 6.964202,
    "longitude": 79.930611
  },
  {
    "city": "Gampaha",
    "district": "Gampaha",
    "postal": "11000",
    "latitude": 7.0917,
    "longitude": 79.9942
  },
  {
    "city": "Ganemulla",
    "district": "Gampaha",
    "postal": "11020",
    "latitude": 7.064183,
    "longitude": 79.963294
  },
  {
    "city": "Giriulla",
    "district": "Gampaha",
    "postal": "60140",
    "latitude": 7.3275,
    "longitude": 80.1267
  },
  {
    "city": "Gonawala",
    "district": "Gampaha",
    "postal": "11630",
    "latitude": 6.9612,
    "longitude": 79.9992
  },
  {
    "city": "Halpe",
    "district": "Gampaha",
    "postal": "70145",
    "latitude": 7.261935,
    "longitude": 80.10821
  },
  {
    "city": "Hapugastenna",
    "district": "Gampaha",
    "postal": "70164",
    "latitude": 7.1,
    "longitude": 80.1667
  },
  {
    "city": "Heiyanthuduwa",
    "district": "Gampaha",
    "postal": "11618",
    "latitude": 6.96283,
    "longitude": 79.963309
  },
  {
    "city": "Hinatiyana Madawala",
    "district": "Gampaha",
    "postal": "11568",
    "latitude": 7.1667,
    "longitude": 79.95
  },
  {
    "city": "Hiswella",
    "district": "Gampaha",
    "postal": "11734",
    "latitude": 7.021559,
    "longitude": 80.160869
  },
  {
    "city": "Horampella",
    "district": "Gampaha",
    "postal": "11564",
    "latitude": 7.185188,
    "longitude": 79.976771
  },
  {
    "city": "Hunumulla",
    "district": "Gampaha",
    "postal": "11262",
    "latitude": 7.244925,
    "longitude": 79.996921
  },
  {
    "city": "Hunupola",
    "district": "Gampaha",
    "postal": "60582",
    "latitude": 7.111463,
    "longitude": 80.130625
  },
  {
    "city": "Ihala Madampella",
    "district": "Gampaha",
    "postal": "11265",
    "latitude": 7.250345,
    "longitude": 79.960941
  },
  {
    "city": "Imbulgoda",
    "district": "Gampaha",
    "postal": "11856",
    "latitude": 7.035,
    "longitude": 79.9931
  },
  {
    "city": "Ja-Ela",
    "district": "Gampaha",
    "postal": "11350",
    "latitude": 7.076147,
    "longitude": 79.894932
  },
  {
    "city": "Kadawatha",
    "district": "Gampaha",
    "postal": "11850",
    "latitude": 7.0258,
    "longitude": 79.9882
  },
  {
    "city": "Kahatowita",
    "district": "Gampaha",
    "postal": "11144",
    "latitude": 7.0667,
    "longitude": 80.1167
  },
  {
    "city": "Kalagedihena",
    "district": "Gampaha",
    "postal": "11875",
    "latitude": 7.118004,
    "longitude": 80.058001
  },
  {
    "city": "Kaleliya",
    "district": "Gampaha",
    "postal": "11160",
    "latitude": 7.195,
    "longitude": 80.1136
  },
  {
    "city": "Kandana",
    "district": "Gampaha",
    "postal": "11320",
    "latitude": 7.05056,
    "longitude": 79.895123
  },
  {
    "city": "Katana",
    "district": "Gampaha",
    "postal": "11534",
    "latitude": 7.2517,
    "longitude": 79.9078
  },
  {
    "city": "Katudeniya",
    "district": "Gampaha",
    "postal": "21016",
    "latitude": 7.3,
    "longitude": 80.0833
  },
  {
    "city": "Katunayake",
    "district": "Gampaha",
    "postal": "11450",
    "latitude": 7.1647,
    "longitude": 79.8731
  },
  {
    "city": "Katunayake Air Force Camp",
    "district": "Gampaha",
    "postal": "11440",
    "latitude": 7.1407,
    "longitude": 79.8782
  },
  {
    "city": "KatunayakeFTZ)",
    "district": "Gampaha",
    "postal": "11420",
    "latitude": 7.1407,
    "longitude": 79.8782
  },
  {
    "city": "Katuwellegama",
    "district": "Gampaha",
    "postal": "11526",
    "latitude": 7.208557,
    "longitude": 79.94572
  },
  {
    "city": "Kelaniya",
    "district": "Gampaha",
    "postal": "11600",
    "latitude": 6.956357,
    "longitude": 79.921431
  },
  {
    "city": "Kimbulapitiya",
    "district": "Gampaha",
    "postal": "11522",
    "latitude": 7.202265,
    "longitude": 79.908937
  },
  {
    "city": "Kirindiwela",
    "district": "Gampaha",
    "postal": "11730",
    "latitude": 7.044223,
    "longitude": 80.126707
  },
  {
    "city": "Kitalawalana",
    "district": "Gampaha",
    "postal": "11206",
    "latitude": 7.3,
    "longitude": 80.1
  },
  {
    "city": "Kochchikade",
    "district": "Gampaha",
    "postal": "11540",
    "latitude": 7.2581,
    "longitude": 79.8542
  },
  {
    "city": "Kotadeniyawa",
    "district": "Gampaha",
    "postal": "11232",
    "latitude": 7.279861,
    "longitude": 80.05581
  },
  {
    "city": "Kotugoda",
    "district": "Gampaha",
    "postal": "11390",
    "latitude": 7.1217,
    "longitude": 79.9297
  },
  {
    "city": "Kumbaloluwa",
    "district": "Gampaha",
    "postal": "11105",
    "latitude": 7.179375,
    "longitude": 80.082233
  },
  {
    "city": "Loluwagoda",
    "district": "Gampaha",
    "postal": "11204",
    "latitude": 7.294586,
    "longitude": 80.126624
  },
  {
    "city": "Mabodale",
    "district": "Gampaha",
    "postal": "11114",
    "latitude": 7.2,
    "longitude": 80.0167
  },
  {
    "city": "Madelgamuwa",
    "district": "Gampaha",
    "postal": "11033",
    "latitude": 7.110062,
    "longitude": 79.948175
  },
  {
    "city": "Makewita",
    "district": "Gampaha",
    "postal": "11358",
    "latitude": 7.1,
    "longitude": 79.9333
  },
  {
    "city": "Makola",
    "district": "Gampaha",
    "postal": "11640",
    "latitude": 6.983178,
    "longitude": 79.9525
  },
  {
    "city": "Malwana",
    "district": "Gampaha",
    "postal": "11670",
    "latitude": 6.951988,
    "longitude": 80.012561
  },
  {
    "city": "Mandawala",
    "district": "Gampaha",
    "postal": "11061",
    "latitude": 7.003066,
    "longitude": 80.097082
  },
  {
    "city": "Marandagahamula",
    "district": "Gampaha",
    "postal": "11260",
    "latitude": 7.2447,
    "longitude": 79.9696
  },
  {
    "city": "Mellawagedara",
    "district": "Gampaha",
    "postal": "11234",
    "latitude": 7.285808,
    "longitude": 80.023977
  },
  {
    "city": "Minuwangoda",
    "district": "Gampaha",
    "postal": "11550",
    "latitude": 7.176455,
    "longitude": 79.954904
  },
  {
    "city": "Mirigama",
    "district": "Gampaha",
    "postal": "11200",
    "latitude": 7.2414,
    "longitude": 80.1325
  },
  {
    "city": "Miriswatta",
    "district": "Gampaha",
    "postal": "80508",
    "latitude": 7.0711,
    "longitude": 80.0183
  },
  {
    "city": "Mithirigala",
    "district": "Gampaha",
    "postal": "11742",
    "latitude": 6.9648,
    "longitude": 80.0648
  },
  {
    "city": "Muddaragama",
    "district": "Gampaha",
    "postal": "11112",
    "latitude": 7.2167,
    "longitude": 80.05
  },
  {
    "city": "Mudungoda",
    "district": "Gampaha",
    "postal": "11056",
    "latitude": 7.064698,
    "longitude": 79.999092
  },
  {
    "city": "Mulleriyawa New Town",
    "district": "Gampaha",
    "postal": "10620",
    "latitude": 6.9301,
    "longitude": 80.0549
  },
  {
    "city": "Naranwala",
    "district": "Gampaha",
    "postal": "11063",
    "latitude": 7.001631,
    "longitude": 80.027404
  },
  {
    "city": "Nawana",
    "district": "Gampaha",
    "postal": "11222",
    "latitude": 7.270062,
    "longitude": 80.092618
  },
  {
    "city": "Nedungamuwa",
    "district": "Gampaha",
    "postal": "11066",
    "latitude": 7.05,
    "longitude": 80.0333
  },
  {
    "city": "Negombo",
    "district": "Gampaha",
    "postal": "11500",
    "latitude": 7.2086,
    "longitude": 79.8358
  },
  {
    "city": "Nikadalupotha",
    "district": "Gampaha",
    "postal": "60580",
    "latitude": 7.1167,
    "longitude": 80.1333
  },
  {
    "city": "Nikahetikanda",
    "district": "Gampaha",
    "postal": "11128",
    "latitude": 7.099089,
    "longitude": 80.179551
  },
  {
    "city": "Nittambuwa",
    "district": "Gampaha",
    "postal": "11880",
    "latitude": 7.144243,
    "longitude": 80.096178
  },
  {
    "city": "Niwandama",
    "district": "Gampaha",
    "postal": "11354",
    "latitude": 7.078762,
    "longitude": 79.928331
  },
  {
    "city": "Opatha",
    "district": "Gampaha",
    "postal": "80142",
    "latitude": 7.132037,
    "longitude": 79.921419
  },
  {
    "city": "Pamunugama",
    "district": "Gampaha",
    "postal": "11370",
    "latitude": 7.094359,
    "longitude": 79.844569
  },
  {
    "city": "Pamunuwatta",
    "district": "Gampaha",
    "postal": "11214",
    "latitude": 7.214678,
    "longitude": 80.139696
  },
  {
    "city": "Panawala",
    "district": "Gampaha",
    "postal": "70612",
    "latitude": 6.9833,
    "longitude": 80.0333
  },
  {
    "city": "Pasyala",
    "district": "Gampaha",
    "postal": "11890",
    "latitude": 7.172926,
    "longitude": 80.115911
  },
  {
    "city": "Peliyagoda",
    "district": "Gampaha",
    "postal": "11830",
    "latitude": 6.960977,
    "longitude": 79.878852
  },
  {
    "city": "Pepiliyawala",
    "district": "Gampaha",
    "postal": "11741",
    "latitude": 7.002342,
    "longitude": 80.128886
  },
  {
    "city": "Pethiyagoda",
    "district": "Gampaha",
    "postal": "11043",
    "latitude": 7.1167,
    "longitude": 80.0167
  },
  {
    "city": "Polpithimukulana",
    "district": "Gampaha",
    "postal": "11324",
    "latitude": 7.0444,
    "longitude": 79.8782
  },
  {
    "city": "Puwakpitiya",
    "district": "Gampaha",
    "postal": "10712",
    "latitude": 7.040498,
    "longitude": 80.064451
  },
  {
    "city": "Radawadunna",
    "district": "Gampaha",
    "postal": "11892",
    "latitude": 7.177279,
    "longitude": 80.141344
  },
  {
    "city": "Radawana",
    "district": "Gampaha",
    "postal": "11725",
    "latitude": 7.029871,
    "longitude": 80.100915
  },
  {
    "city": "Raddolugama",
    "district": "Gampaha",
    "postal": "11400",
    "latitude": 7.140656,
    "longitude": 79.898198
  },
  {
    "city": "Ragama",
    "district": "Gampaha",
    "postal": "11010",
    "latitude": 7.025281,
    "longitude": 79.917386
  },
  {
    "city": "Ruggahawila",
    "district": "Gampaha",
    "postal": "11142",
    "latitude": 7.0667,
    "longitude": 80.1167
  },
  {
    "city": "Seeduwa",
    "district": "Gampaha",
    "postal": "11410",
    "latitude": 7.132059,
    "longitude": 79.885024
  },
  {
    "city": "Siyambalape",
    "district": "Gampaha",
    "postal": "11607",
    "latitude": 6.964545,
    "longitude": 79.986406
  },
  {
    "city": "Talahena",
    "district": "Gampaha",
    "postal": "11504",
    "latitude": 7.1667,
    "longitude": 79.8167
  },
  {
    "city": "Thambagalla",
    "district": "Gampaha",
    "postal": "60584",
    "latitude": 7.1167,
    "longitude": 80.1333
  },
  {
    "city": "Thimbirigaskatuwa",
    "district": "Gampaha",
    "postal": "11532",
    "latitude": 7.2669,
    "longitude": 79.9495
  },
  {
    "city": "Tittapattara",
    "district": "Gampaha",
    "postal": "10664",
    "latitude": 6.9297,
    "longitude": 80.0889
  },
  {
    "city": "Udathuthiripitiya",
    "district": "Gampaha",
    "postal": "11054",
    "latitude": 7.075,
    "longitude": 80.0333
  },
  {
    "city": "Udugampola",
    "district": "Gampaha",
    "postal": "11030",
    "latitude": 7.1167,
    "longitude": 79.9833
  },
  {
    "city": "Uggalboda",
    "district": "Gampaha",
    "postal": "11034",
    "latitude": 7.135549,
    "longitude": 79.948259
  },
  {
    "city": "Urapola",
    "district": "Gampaha",
    "postal": "11126",
    "latitude": 7.104792,
    "longitude": 80.136935
  },
  {
    "city": "Uswetakeiyawa",
    "district": "Gampaha",
    "postal": "11328",
    "latitude": 7.031046,
    "longitude": 79.860339
  },
  {
    "city": "Veyangoda",
    "district": "Gampaha",
    "postal": "11100",
    "latitude": 7.156981,
    "longitude": 80.095842
  },
  {
    "city": "Walgammulla",
    "district": "Gampaha",
    "postal": "11146",
    "latitude": 7.071902,
    "longitude": 80.116511
  },
  {
    "city": "Walpita",
    "district": "Gampaha",
    "postal": "11226",
    "latitude": 7.258131,
    "longitude": 80.034704
  },
  {
    "city": "Walpola WP)",
    "district": "Gampaha",
    "postal": "11012",
    "latitude": 7.0418,
    "longitude": 79.9257
  },
  {
    "city": "Wathurugama",
    "district": "Gampaha",
    "postal": "11724",
    "latitude": 7.0421,
    "longitude": 80.0701
  },
  {
    "city": "Watinapaha",
    "district": "Gampaha",
    "postal": "11104",
    "latitude": 7.2,
    "longitude": 79.9833
  },
  {
    "city": "Wattala",
    "district": "Gampaha",
    "postal": "11104",
    "latitude": 6.990037,
    "longitude": 79.892207
  },
  {
    "city": "Weboda",
    "district": "Gampaha",
    "postal": "11858",
    "latitude": 7.0167,
    "longitude": 79.9833
  },
  {
    "city": "Wegowwa",
    "district": "Gampaha",
    "postal": "11562",
    "latitude": 7.178443,
    "longitude": 79.962063
  },
  {
    "city": "Weweldeniya",
    "district": "Gampaha",
    "postal": "11894",
    "latitude": 7.1834,
    "longitude": 80.1446
  },
  {
    "city": "Yakkala",
    "district": "Gampaha",
    "postal": "11870",
    "latitude": 7.1167,
    "longitude": 80.05
  },
  {
    "city": "Yatiyana",
    "district": "Gampaha",
    "postal": "11566",
    "latitude": 7.184998,
    "longitude": 79.931858
  },
  {
    "city": "Ambalantota",
    "district": "Hambantota",
    "postal": "82100",
    "latitude": 6.114494,
    "longitude": 81.025983
  },
  {
    "city": "Angunakolapelessa",
    "district": "Hambantota",
    "postal": "82220",
    "latitude": 6.162261,
    "longitude": 80.899471
  },
  {
    "city": "Angunakolawewa",
    "district": "Hambantota",
    "postal": "91302",
    "latitude": 6.389127,
    "longitude": 81.093226
  },
  {
    "city": "Bandagiriya Colony",
    "district": "Hambantota",
    "postal": "82005",
    "latitude": 6.1833,
    "longitude": 81.1389
  },
  {
    "city": "Barawakumbuka",
    "district": "Hambantota",
    "postal": "82110",
    "latitude": 6.1667,
    "longitude": 80.8167
  },
  {
    "city": "Beliatta",
    "district": "Hambantota",
    "postal": "82400",
    "latitude": 6.048637,
    "longitude": 80.734343
  },
  {
    "city": "Beragama",
    "district": "Hambantota",
    "postal": "82102",
    "latitude": 6.15,
    "longitude": 81.0667
  },
  {
    "city": "Beralihela",
    "district": "Hambantota",
    "postal": "82618",
    "latitude": 6.2556,
    "longitude": 81.2944
  },
  {
    "city": "Bundala",
    "district": "Hambantota",
    "postal": "82002",
    "latitude": 6.195164,
    "longitude": 81.250493
  },
  {
    "city": "Ellagala",
    "district": "Hambantota",
    "postal": "82619",
    "latitude": 6.26867,
    "longitude": 81.359512
  },
  {
    "city": "Gangulandeniya",
    "district": "Hambantota",
    "postal": "82586",
    "latitude": 6.2833,
    "longitude": 80.7167
  },
  {
    "city": "Getamanna",
    "district": "Hambantota",
    "postal": "82420",
    "latitude": 6.036244,
    "longitude": 80.669146
  },
  {
    "city": "Goda Koggalla",
    "district": "Hambantota",
    "postal": "82401",
    "latitude": 6.0333,
    "longitude": 80.75
  },
  {
    "city": "Gonagamuwa Uduwila",
    "district": "Hambantota",
    "postal": "82602",
    "latitude": 6.25,
    "longitude": 81.2917
  },
  {
    "city": "Gonnoruwa",
    "district": "Hambantota",
    "postal": "82006",
    "latitude": 6.230443,
    "longitude": 81.112465
  },
  {
    "city": "Hakuruwela",
    "district": "Hambantota",
    "postal": "82248",
    "latitude": 6.146456,
    "longitude": 80.83047
  },
  {
    "city": "Hambantota",
    "district": "Hambantota",
    "postal": "82000",
    "latitude": 6.127563,
    "longitude": 81.111287
  },
  {
    "city": "Handugala",
    "district": "Hambantota",
    "postal": "81326",
    "latitude": 6.188877,
    "longitude": 80.62414
  },
  {
    "city": "Hungama",
    "district": "Hambantota",
    "postal": "82120",
    "latitude": 6.108006,
    "longitude": 80.927144
  },
  {
    "city": "Ihala Beligalla",
    "district": "Hambantota",
    "postal": "82412",
    "latitude": 6.092378,
    "longitude": 80.747311
  },
  {
    "city": "Ittademaliya",
    "district": "Hambantota",
    "postal": "82462",
    "latitude": 6.167432,
    "longitude": 80.735179
  },
  {
    "city": "Julampitiya",
    "district": "Hambantota",
    "postal": "82252",
    "latitude": 6.2261,
    "longitude": 80.7403
  },
  {
    "city": "Kahandamodara",
    "district": "Hambantota",
    "postal": "82126",
    "latitude": 6.078654,
    "longitude": 80.902917
  },
  {
    "city": "Kariyamaditta",
    "district": "Hambantota",
    "postal": "82274",
    "latitude": 6.257359,
    "longitude": 80.809448
  },
  {
    "city": "Katuwana",
    "district": "Hambantota",
    "postal": "82500",
    "latitude": 6.2667,
    "longitude": 80.6972
  },
  {
    "city": "Kawantissapura",
    "district": "Hambantota",
    "postal": "82622",
    "latitude": 6.2786,
    "longitude": 81.2524
  },
  {
    "city": "Kirama",
    "district": "Hambantota",
    "postal": "82550",
    "latitude": 6.2117,
    "longitude": 80.6653
  },
  {
    "city": "Kirinda",
    "district": "Hambantota",
    "postal": "82614",
    "latitude": 6.268985,
    "longitude": 81.290653
  },
  {
    "city": "Lunama",
    "district": "Hambantota",
    "postal": "82108",
    "latitude": 6.098517,
    "longitude": 80.971511
  },
  {
    "city": "Lunugamwehera",
    "district": "Hambantota",
    "postal": "82634",
    "latitude": 6.3417,
    "longitude": 81.15
  },
  {
    "city": "Magama",
    "district": "Hambantota",
    "postal": "82608",
    "latitude": 6.280108,
    "longitude": 81.270354
  },
  {
    "city": "Mahagalwewa",
    "district": "Hambantota",
    "postal": "82016",
    "latitude": 6.1833,
    "longitude": 81.1389
  },
  {
    "city": "Mamadala",
    "district": "Hambantota",
    "postal": "82109",
    "latitude": 6.158126,
    "longitude": 80.96681
  },
  {
    "city": "Medamulana",
    "district": "Hambantota",
    "postal": "82254",
    "latitude": 6.175878,
    "longitude": 80.770016
  },
  {
    "city": "Middeniya",
    "district": "Hambantota",
    "postal": "82270",
    "latitude": 6.2494,
    "longitude": 80.7672
  },
  {
    "city": "Migahajandur",
    "district": "Hambantota",
    "postal": "82014",
    "latitude": 6.1833,
    "longitude": 81.1389
  },
  {
    "city": "Modarawana",
    "district": "Hambantota",
    "postal": "82416",
    "latitude": 6.117576,
    "longitude": 80.720781
  },
  {
    "city": "Mulkirigala",
    "district": "Hambantota",
    "postal": "82242",
    "latitude": 6.12,
    "longitude": 80.7397
  },
  {
    "city": "Nakulugamuwa",
    "district": "Hambantota",
    "postal": "82300",
    "latitude": 6.1842,
    "longitude": 80.9063
  },
  {
    "city": "Netolpitiya",
    "district": "Hambantota",
    "postal": "82135",
    "latitude": 6.066848,
    "longitude": 80.850703
  },
  {
    "city": "Nihiluwa",
    "district": "Hambantota",
    "postal": "82414",
    "latitude": 6.077147,
    "longitude": 80.696499
  },
  {
    "city": "Padawkema",
    "district": "Hambantota",
    "postal": "82636",
    "latitude": 6.35,
    "longitude": 81.1667
  },
  {
    "city": "Pahala Andarawewa",
    "district": "Hambantota",
    "postal": "82008",
    "latitude": 6.1833,
    "longitude": 81.1389
  },
  {
    "city": "Rammalawarapitiya",
    "district": "Hambantota",
    "postal": "82554",
    "latitude": 6.2117,
    "longitude": 80.6653
  },
  {
    "city": "Ranakeliya",
    "district": "Hambantota",
    "postal": "82612",
    "latitude": 6.2167,
    "longitude": 81.3
  },
  {
    "city": "Ranmuduwewa",
    "district": "Hambantota",
    "postal": "82018",
    "latitude": 6.1833,
    "longitude": 81.1389
  },
  {
    "city": "Ranna",
    "district": "Hambantota",
    "postal": "82125",
    "latitude": 6.103377,
    "longitude": 80.890168
  },
  {
    "city": "Ratmalwala",
    "district": "Hambantota",
    "postal": "82276",
    "latitude": 6.2667,
    "longitude": 80.85
  },
  {
    "city": "RU/Ridiyagama",
    "district": "Hambantota",
    "postal": "82106",
    "latitude": 6.1375,
    "longitude": 81.0042
  },
  {
    "city": "Sooriyawewa Town",
    "district": "Hambantota",
    "postal": "82010",
    "latitude": 6.1833,
    "longitude": 81.1389
  },
  {
    "city": "Tangalla",
    "district": "Hambantota",
    "postal": "82200",
    "latitude": 6.0231,
    "longitude": 80.7889
  },
  {
    "city": "Tissamaharama",
    "district": "Hambantota",
    "postal": "82600",
    "latitude": 6.370333,
    "longitude": 81.328087
  },
  {
    "city": "Uda Gomadiya",
    "district": "Hambantota",
    "postal": "82504",
    "latitude": 6.2667,
    "longitude": 80.6972
  },
  {
    "city": "Udamattala",
    "district": "Hambantota",
    "postal": "82638",
    "latitude": 6.3333,
    "longitude": 81.1333
  },
  {
    "city": "Uswewa",
    "district": "Hambantota",
    "postal": "82278",
    "latitude": 6.246247,
    "longitude": 80.862175
  },
  {
    "city": "Vitharandeniya",
    "district": "Hambantota",
    "postal": "82232",
    "latitude": 6.1824,
    "longitude": 80.806
  },
  {
    "city": "Walasmulla",
    "district": "Hambantota",
    "postal": "82450",
    "latitude": 6.15,
    "longitude": 80.7
  },
  {
    "city": "Weeraketiya",
    "district": "Hambantota",
    "postal": "82240",
    "latitude": 6.135,
    "longitude": 80.7865
  },
  {
    "city": "Weerawila",
    "district": "Hambantota",
    "postal": "82632",
    "latitude": 6.3417,
    "longitude": 81.15
  },
  {
    "city": "Weerawila NewTown",
    "district": "Hambantota",
    "postal": "82615",
    "latitude": 6.2556,
    "longitude": 81.2944
  },
  {
    "city": "Wekandawela",
    "district": "Hambantota",
    "postal": "82246",
    "latitude": 6.135,
    "longitude": 80.7865
  },
  {
    "city": "Weligatta",
    "district": "Hambantota",
    "postal": "82004",
    "latitude": 6.205897,
    "longitude": 81.196032
  },
  {
    "city": "Yatigala",
    "district": "Hambantota",
    "postal": "82418",
    "latitude": 6.1,
    "longitude": 80.6833
  },
  {
    "city": "Jaffna",
    "district": "Jaffna",
    "postal": "40000",
    "latitude": 9.660668,
    "longitude": 80.022706
  },
  {
    "city": "Agalawatta",
    "district": "Kalutara",
    "postal": "12200",
    "latitude": 6.541499,
    "longitude": 80.155785
  },
  {
    "city": "Alubomulla",
    "district": "Kalutara",
    "postal": "12524",
    "latitude": 6.711977,
    "longitude": 79.965857
  },
  {
    "city": "Anguruwatota",
    "district": "Kalutara",
    "postal": "12320",
    "latitude": 6.6383,
    "longitude": 80.0861
  },
  {
    "city": "Atale",
    "district": "Kalutara",
    "postal": "71363",
    "latitude": 6.45,
    "longitude": 80.2667
  },
  {
    "city": "Baduraliya",
    "district": "Kalutara",
    "postal": "12230",
    "latitude": 6.523102,
    "longitude": 80.232371
  },
  {
    "city": "Bandaragama",
    "district": "Kalutara",
    "postal": "12530",
    "latitude": 6.710264,
    "longitude": 79.986087
  },
  {
    "city": "Batugampola",
    "district": "Kalutara",
    "postal": "10526",
    "latitude": 6.769068,
    "longitude": 80.142775
  },
  {
    "city": "Bellana",
    "district": "Kalutara",
    "postal": "12224",
    "latitude": 6.518936,
    "longitude": 80.183117
  },
  {
    "city": "Beruwala",
    "district": "Kalutara",
    "postal": "12070",
    "latitude": 6.4739,
    "longitude": 79.9842
  },
  {
    "city": "Bolossagama",
    "district": "Kalutara",
    "postal": "12008",
    "latitude": 6.62099,
    "longitude": 80.015288
  },
  {
    "city": "Bombuwala",
    "district": "Kalutara",
    "postal": "12024",
    "latitude": 6.5833,
    "longitude": 80.0167
  },
  {
    "city": "Boralugoda",
    "district": "Kalutara",
    "postal": "12142",
    "latitude": 6.438709,
    "longitude": 80.278799
  },
  {
    "city": "Bulathsinhala",
    "district": "Kalutara",
    "postal": "12300",
    "latitude": 6.666199,
    "longitude": 80.164896
  },
  {
    "city": "Danawala Thiniyawala",
    "district": "Kalutara",
    "postal": "12148",
    "latitude": 6.4333,
    "longitude": 80.2667
  },
  {
    "city": "Delmella",
    "district": "Kalutara",
    "postal": "12304",
    "latitude": 6.67833,
    "longitude": 80.210488
  },
  {
    "city": "Dharga Town",
    "district": "Kalutara",
    "postal": "12090",
    "latitude": 6.648,
    "longitude": 80.0089
  },
  {
    "city": "Diwalakada",
    "district": "Kalutara",
    "postal": "12308",
    "latitude": 6.696767,
    "longitude": 80.146983
  },
  {
    "city": "Dodangoda",
    "district": "Kalutara",
    "postal": "12020",
    "latitude": 6.555952,
    "longitude": 80.006847
  },
  {
    "city": "Dombagoda",
    "district": "Kalutara",
    "postal": "12416",
    "latitude": 6.661797,
    "longitude": 80.053343
  },
  {
    "city": "Ethkandura",
    "district": "Kalutara",
    "postal": "80458",
    "latitude": 6.4415,
    "longitude": 80.1807
  },
  {
    "city": "Galpatha",
    "district": "Kalutara",
    "postal": "12005",
    "latitude": 6.5983,
    "longitude": 80.0015
  },
  {
    "city": "Gamagoda",
    "district": "Kalutara",
    "postal": "12016",
    "latitude": 6.597103,
    "longitude": 80.005539
  },
  {
    "city": "Gonagalpura",
    "district": "Kalutara",
    "postal": "80502",
    "latitude": 6.6307,
    "longitude": 80.0169
  },
  {
    "city": "Gonapola Junction",
    "district": "Kalutara",
    "postal": "12410",
    "latitude": 6.6944,
    "longitude": 80.0333
  },
  {
    "city": "Govinna",
    "district": "Kalutara",
    "postal": "12310",
    "latitude": 6.663337,
    "longitude": 80.116274
  },
  {
    "city": "Gurulubadda",
    "district": "Kalutara",
    "postal": "12236",
    "latitude": 6.5333,
    "longitude": 80.2667
  },
  {
    "city": "Halkandawila",
    "district": "Kalutara",
    "postal": "12055",
    "latitude": 6.5167,
    "longitude": 80.0167
  },
  {
    "city": "Haltota",
    "district": "Kalutara",
    "postal": "12538",
    "latitude": 6.69554,
    "longitude": 80.02127
  },
  {
    "city": "Halvitigala Colony",
    "district": "Kalutara",
    "postal": "80146",
    "latitude": 6.5791,
    "longitude": 80.2233
  },
  {
    "city": "Halwala",
    "district": "Kalutara",
    "postal": "12118",
    "latitude": 6.416524,
    "longitude": 80.106562
  },
  {
    "city": "Halwatura",
    "district": "Kalutara",
    "postal": "12306",
    "latitude": 6.7,
    "longitude": 80.2
  },
  {
    "city": "Handapangoda",
    "district": "Kalutara",
    "postal": "10524",
    "latitude": 6.789746,
    "longitude": 80.140774
  },
  {
    "city": "Hedigalla Colony",
    "district": "Kalutara",
    "postal": "12234",
    "latitude": 6.5333,
    "longitude": 80.2667
  },
  {
    "city": "Henegama",
    "district": "Kalutara",
    "postal": "11715",
    "latitude": 6.7167,
    "longitude": 80.0333
  },
  {
    "city": "Hettimulla",
    "district": "Kalutara",
    "postal": "71210",
    "latitude": 6.461362,
    "longitude": 79.992643
  },
  {
    "city": "Horana",
    "district": "Kalutara",
    "postal": "12400",
    "latitude": 6.719389,
    "longitude": 80.061557
  },
  {
    "city": "Ittapana",
    "district": "Kalutara",
    "postal": "12116",
    "latitude": 6.42254,
    "longitude": 80.079501
  },
  {
    "city": "Kahawala",
    "district": "Kalutara",
    "postal": "10508",
    "latitude": 6.7833,
    "longitude": 80.1
  },
  {
    "city": "Kalawila Kiranthidiya",
    "district": "Kalutara",
    "postal": "12078",
    "latitude": 6.4619,
    "longitude": 80.0004
  },
  {
    "city": "Kalutara",
    "district": "Kalutara",
    "postal": "12000",
    "latitude": 6.581333,
    "longitude": 79.958546
  },
  {
    "city": "Kananwila",
    "district": "Kalutara",
    "postal": "12418",
    "latitude": 6.7667,
    "longitude": 80.05
  },
  {
    "city": "Kandanagama",
    "district": "Kalutara",
    "postal": "12428",
    "latitude": 6.7667,
    "longitude": 80.0778
  },
  {
    "city": "Kelinkanda",
    "district": "Kalutara",
    "postal": "12218",
    "latitude": 6.587128,
    "longitude": 80.29322
  },
  {
    "city": "Kitulgoda",
    "district": "Kalutara",
    "postal": "12222",
    "latitude": 6.5167,
    "longitude": 80.1833
  },
  {
    "city": "Koholana",
    "district": "Kalutara",
    "postal": "12007",
    "latitude": 6.618149,
    "longitude": 79.989353
  },
  {
    "city": "Kuda Uduwa",
    "district": "Kalutara",
    "postal": "12426",
    "latitude": 6.747871,
    "longitude": 80.078499
  },
  {
    "city": "Labbala",
    "district": "Kalutara",
    "postal": "60162",
    "latitude": 6.4833,
    "longitude": 80
  },
  {
    "city": "lhalahewessa",
    "district": "Kalutara",
    "postal": "80432",
    "latitude": 6.4415,
    "longitude": 80.1807
  },
  {
    "city": "lnduruwa",
    "district": "Kalutara",
    "postal": "80510",
    "latitude": 6.4681,
    "longitude": 80.0257
  },
  {
    "city": "lngiriya",
    "district": "Kalutara",
    "postal": "12440",
    "latitude": 6.7296,
    "longitude": 80.0604
  },
  {
    "city": "Maggona",
    "district": "Kalutara",
    "postal": "12060",
    "latitude": 6.503158,
    "longitude": 79.977597
  },
  {
    "city": "Mahagama",
    "district": "Kalutara",
    "postal": "12210",
    "latitude": 6.620177,
    "longitude": 80.154204
  },
  {
    "city": "Mahakalupahana",
    "district": "Kalutara",
    "postal": "12126",
    "latitude": 6.3917,
    "longitude": 80.1417
  },
  {
    "city": "Maharangalla",
    "district": "Kalutara",
    "postal": "71211",
    "latitude": 6.4667,
    "longitude": 80
  },
  {
    "city": "Malgalla Talangalla",
    "district": "Kalutara",
    "postal": "80144",
    "latitude": 6.5791,
    "longitude": 80.2233
  },
  {
    "city": "Matugama",
    "district": "Kalutara",
    "postal": "12100",
    "latitude": 6.5222,
    "longitude": 80.1144
  },
  {
    "city": "Meegahatenna",
    "district": "Kalutara",
    "postal": "12130",
    "latitude": 6.3637,
    "longitude": 80.285
  },
  {
    "city": "Meegama",
    "district": "Kalutara",
    "postal": "12094",
    "latitude": 6.648,
    "longitude": 80.0089
  },
  {
    "city": "Meegoda",
    "district": "Kalutara",
    "postal": "10504",
    "latitude": 6.8053,
    "longitude": 80.0829
  },
  {
    "city": "Millaniya",
    "district": "Kalutara",
    "postal": "12412",
    "latitude": 6.686206,
    "longitude": 80.017227
  },
  {
    "city": "Millewa",
    "district": "Kalutara",
    "postal": "12422",
    "latitude": 6.7833,
    "longitude": 80.0667
  },
  {
    "city": "Miwanapalana",
    "district": "Kalutara",
    "postal": "12424",
    "latitude": 6.75,
    "longitude": 80.1
  },
  {
    "city": "Molkawa",
    "district": "Kalutara",
    "postal": "12216",
    "latitude": 6.607725,
    "longitude": 80.238612
  },
  {
    "city": "Morapitiya",
    "district": "Kalutara",
    "postal": "12232",
    "latitude": 6.527127,
    "longitude": 80.263667
  },
  {
    "city": "Morontuduwa",
    "district": "Kalutara",
    "postal": "12564",
    "latitude": 6.65,
    "longitude": 79.9667
  },